     3.03           OBSERVATION DATA    G: GPS              RINEX VERSION / TYPE
RtkConv Qt demo5 b34                    20240722 161605 UTC PGM / RUN BY / DATE 
format: RINEX                                               COMMENT             
log: /home/hades/Desktop/Projects/NeuralTriangulation/tests/COMMENT             
Google GnssLogger                                           MARKER NAME         
Unknown                                                     MARKER NUMBER       
                                                            MARKER TYPE         
                                                            OBSERVER / AGENCY   
Unknown             GNSSToRINEXV3       v1.0.0.0            REC # / TYPE / VERS 
Unknown             Unknown                                 ANT # / TYPE        
        0.0000        0.0000        0.0000                  APPROX POSITION XYZ 
        0.0000        0.0000        0.0000                  ANTENNA: DELTA H/E/N
G    4 C1C L1C D1C S1C                                      SYS / # / OBS TYPES 
  2020    06    10    20    08   51.4432855     GPS         TIME OF FIRST OBS   
  2020    06    10    20    33   50.4432788     GPS         TIME OF LAST OBS    
G L1C                                                       SYS / PHASE SHIFT   
  0                                                         GLONASS SLOT / FRQ #
                                                            GLONASS COD/PHS/BIS 
                                                            END OF HEADER       
> 2020 06 10 20 08 51.4432855  0  8                     
G02  20894805.300 5    240740.56015      -813.230          35.200  
G05  23502086.517 5    -97231.28035      3280.164          33.200  
G06  22084863.840 5    823310.67335     -2620.025          32.800  
G12  20204924.695 4   -214325.10314       852.254          25.200  
G19  23729134.935 5     71361.01135     -2808.108          34.200  
G24  22811839.265 6    907871.22916     -2845.019          37.900  
G25  21605254.966 5   -809630.86115      2451.486          34.600  
G29  23589142.949 6   -312420.15316      2416.384          38.400  
> 2020 06 10 20 08 52.4432855  0  8                     
G02  20894965.408 5    241558.545 5      -816.687          32.900  
G05  23501459.670 5   -100508.85915      3281.348          31.400  
G06  22085356.717 5    825935.27915     -2623.207          30.200  
G12                                                                
G19  23729673.980 5     74173.10115     -2809.765          31.300  
G24  22812384.307 5    910719.144 5     -2844.772          34.600  
G25  21604786.409 5   -812077.68515      2448.478          30.800  
G29  23588678.290 5   -314833.268 5      2415.973          34.400  
> 2020 06 10 20 08 53.4432856  0  8                     
G02  20895148.390 5    242367.537 5      -805.797          33.600  
G05  23500869.187 5   -103797.917 5      3291.879          33.000  
G06  22085891.655 5    828552.25215     -2614.632          33.400  
G12  20204618.134 3              23       859.500          23.000  
G19  23730233.201 6     76976.61516     -2801.700          35.500  
G24  22812951.022 6    913555.325 6     -2831.898          39.000  
G25  21604350.619 6   -814533.77316      2459.292          37.400  
G29  23588249.694 6   -317257.116 6      2427.617          38.200  
> 2020 06 10 20 08 54.4432856  0  8                     
G02  20895305.869 6    243178.744 6      -814.992          35.700  
G05  23500242.709 6   -107086.155 6      3286.013          37.900  
G06  22086382.504 5    831172.647 5     -2626.440          33.800  
G12  20204471.324 4   -216870.005 4       850.916          24.700  
G19  23730769.318 5     79784.188 5     -2813.752          35.200  
G24  22813492.836 5    916389.435 5     -2835.163          35.300  
G25  21603884.830 6   -816988.513 6      2450.827          38.700  
G29  23587789.901 6   -319681.894 6      2422.729          36.300  
> 2020 06 10 20 08 55.4432856  0  8                     
G02  20895460.225 6    243999.760 6      -825.009          37.400  
G05  23499617.605 6   -110368.081 6      3279.503          35.900  
G06  22086889.716 6    833807.177 6     -2640.630          38.200  
G12  20204303.403 4   -217715.38814       840.941          27.300  
G19  23731313.405 4     82606.59314     -2828.452          27.200  
G24  22814032.725 6    919225.95016     -2836.140          37.600  
G25  21603418.016 6   -819434.514 6      2443.441          40.700  
G29  23587328.184 5   -322102.695 5      2420.900          34.600  
> 2020 06 10 20 08 56.4432856  0  8                     
G02  20895616.482 6    244827.968 6      -829.597          35.800  
G05  23498990.203 5   -113646.285 5      3277.621          33.000  
G06  22087390.434 6    836453.322 6     -2649.834          37.500  
G12  20204130.188 5   -218554.08815       838.087          29.500  
G19  23731853.995 5     85440.88415     -2839.302          29.900  
G24  22814569.418 5    922059.76225     -2830.826          34.300  
G25  21602952.503 6   -821876.626 6      2442.488          40.700  
G29  23586865.669 6   -324525.268 6      2425.766          38.400  
> 2020 06 10 20 08 57.4432856  0  8                     
G02  20895774.515 6    245663.302 6      -842.596          36.700  
G05  23498373.573 5   -116918.938 5      3265.972          34.100  
G06  22087901.023 6    839111.191 6     -2666.872          38.200  
G12  20203984.831 5   -219387.635 5       826.983          29.600  
G19  23732393.664 5     88288.973 5     -2857.996          33.000  
G24  22815110.286 5    924891.81115     -2836.159          35.400  
G25  21602489.366 6   -824315.640 6      2432.932          39.000  
G29  23586405.830 6   -326950.84116      2421.047          37.600  
> 2020 06 10 20 08 58.4432856  0  8                     
G02  20895937.795 6    246509.571 6      -848.057          36.300  
G05  23497748.399 6   -120182.912 6      3264.266          35.800  
G06  22088407.265 6    841782.960 6     -2674.313          37.100  
G12  20203812.943 5   -220210.854 5       821.133          31.600  
G19  23732928.387 5     91151.584 5     -2864.550          33.200  
G24  22815653.703 6    927729.471 6     -2837.405          37.000  
G25  21602026.979 6   -826744.917 6      2426.983          38.200  
G29  23585947.040 6   -329369.30526      2417.881          39.700  
> 2020 06 10 20 08 59.4432856  0  8                     
G02  20896095.713 5    247358.473 5      -849.276          34.800  
G05  23497128.056 5   -123447.324 5      3265.639          35.200  
G06  22088913.842 6    844459.113 6     -2677.377          37.500  
G12  20203664.173 5   -221030.988 5       819.460          32.000  
G19  23733475.136 5     94017.972 5     -2867.122          33.300  
G24  22816191.458 6    930566.605 6     -2836.070          37.400  
G25  21601565.226 6   -829170.302 6      2424.391          37.500  
G29  23585481.090 6   -331785.76816      2416.673          39.400  
> 2020 06 10 20 09 00.4432856  0  8                     
G02  20896262.975 5    248210.001 5      -850.853          34.400  
G05  23496507.163 5   -126712.149 5      3267.300          34.600  
G06  22089426.765 6    847139.488 6     -2680.384          37.400  
G12  20203504.961 5   -221848.137 5       817.647          31.300  
G19  23734024.634 5     96888.546 5     -2869.458          33.300  
G24  22816730.763 6    933403.782 6     -2834.285          38.100  
G25  21601103.824 6   -831592.005 6      2421.895          37.700  
G29  23585030.180 6   -334199.843 6      2415.830          39.600  
> 2020 06 10 20 09 01.4432856  0  8                     
G02  20896420.223 5    249053.962 5      -843.484          34.500  
G05  23495883.452 5   -129987.512 5      3277.102          33.900  
G06  22089933.272 6    849813.726 6     -2674.377          37.000  
G12  20203352.224 5   -222672.519 5       824.718          30.500  
G19  23734568.914 5     99751.787 5     -2863.220          33.600  
G24  22817268.448 6    936229.879 6     -2824.344          38.200  
G25  21600641.401 6   -834020.231 6      2428.237          37.700  
G29  23584565.359 6   -336622.668 6      2423.569          39.700  
> 2020 06 10 20 09 02.4432856  0  8                     
G02  20896580.278 6    249905.090 6      -854.886          35.600  
G05  23495259.849 5   -133258.669 5      3268.766          35.400  
G06  22090447.381 6    852496.394 6     -2686.958          36.400  
G12  20203197.197 5   -223489.373 5       813.039          31.700  
G19  23735116.600 5    102622.704 5     -2874.787          32.300  
G24  22817804.142 6    939060.312 6     -2832.771          37.900  
G25  21600179.986 6   -836440.502 6      2416.245          37.300  
G29  23584107.841 6   -339039.220 6      2413.336          40.100  
> 2020 06 10 20 09 03.4432855  0  8                     
G02  20896714.829 5    250764.554 5      -861.181          35.400  
G05  23494610.443 6   -136524.200 6      3264.385          35.500  
G06  22090925.794 6    855188.207 6     -2693.681          36.500  
G12  20203018.765 5   -224297.610 5       806.336          30.100  
G19  23735629.789 5    105501.959 5     -2880.788          33.200  
G24  22818314.933 6    941896.721 6     -2837.997          37.900  
G25  21599693.067 6   -838851.671 6      2409.002          37.900  
G29  23583618.225 6   -341448.073 6      2406.719          40.600  
> 2020 06 10 20 09 04.4432855  0  8                     
G02  20896879.870 5    251624.864 5      -857.195          34.900  
G05  23493986.730 6   -139789.831 6      3269.482          35.700  
G06  22091439.793 6    857880.521 6     -2688.189          36.000  
G12  20202858.831 5   -225104.607 5       810.051          30.300  
G19  23736184.260 5    108380.909 5     -2874.355          34.200  
G24  22818857.712 6    944734.116 6     -2834.443          36.900  
G25  21599234.240 6   -841261.301 6      2412.628          37.200  
G29  23583156.999 6   -343855.269 6      2410.206          39.000  
> 2020 06 10 20 09 05.4432855  0  8                     
G02  20897042.701 6    252480.437 6      -856.743          35.600  
G05  23493368.302 6   -143060.111 6      3269.056          36.100  
G06  22091949.484 6    860567.143 6     -2687.382          36.300  
G12  20202698.186 5   -225916.258 5       810.811          30.300  
G19  23736730.526 5    111253.627 5     -2873.132          33.100  
G24  22819394.385 6    947567.894 6     -2835.079          37.700  
G25  21598778.300 6   -843675.645 6      2413.817          38.100  
G29  23582700.459 6   -346266.525 6      2411.079          39.200  
> 2020 06 10 20 09 06.4432855  0  8                     
G02  20897205.176 6    253335.445 6      -852.240          36.400  
G05  23492746.520 6   -146329.278 6      3270.818          36.600  
G06  22092460.318 6    863252.439 6     -2681.504          36.400  
G12  20202546.778 5   -226729.041 5       815.810          31.200  
G19  23737270.439 5    114125.183 5     -2867.701          32.800  
G24  22819936.397 6    950402.054 6     -2832.602          37.900  
G25  21598313.009 6   -846092.085 6      2420.045          38.100  
G29  23582241.464 6              26      2416.550          39.400  
> 2020 06 10 20 09 07.4432855  0  8                     
G02  20897371.461 5    254184.484 5      -853.616          35.100  
G05  23492122.552 5   -149601.737 5      3266.819          33.700  
G06  22092973.463 6    865930.092 6     -2681.818          37.800  
G12  20202392.885 5   -227548.123 5       814.532          30.200  
G19  23737820.160 5    116989.230 5     -2868.299          32.500  
G24  22820475.324 6    953233.228 6     -2837.365          37.800  
G25  21597850.630 6   -848515.580 6      2418.728          37.900  
G29  23581779.984 6   -351092.482 6      2412.359          39.700  
> 2020 06 10 20 09 08.4432855  0  8                     
G02  20897531.515 5    255046.868 5      -860.682          35.300  
G05  23491504.345 5   -152859.889 5      3259.809          33.900  
G06  22093484.873 6    868619.748 6     -2687.402          38.000  
G12  20202242.054 5   -228353.57215       807.187          30.500  
G19  23738363.348 5    119864.47315     -2872.895          31.300  
G24  22821013.716 6    956080.273 6     -2845.993          36.300  
G25  21597394.610 6   -850925.250 6      2411.309          38.100  
G29  23581321.865 6   -353495.238 6      2404.269          39.200  
> 2020 06 10 20 09 09.4432855  0  8                     
G02  20897694.770 6    255901.792 6      -856.624          35.900  
G05  23490883.942 5   -156125.162 5      3264.987          30.900  
G06  22093994.389 6    871301.286 6     -2683.068          38.500  
G12  20202086.329 4   -229166.16614       810.663          28.600  
G19  23738913.335 5    122731.224 5     -2867.686          31.600  
G24  22821557.108 6    958921.387 6     -2842.359          35.800  
G25  21596935.795 6   -853341.827 6      2414.212          39.000  
G29  23580866.049 6   -355904.026 6      2406.629          39.500  
> 2020 06 10 20 09 10.4432855  0  8                     
G02  20897857.984 6    256763.129 6      -858.867          36.100  
G05  23490258.702 5   -159386.634 5      3265.504          30.600  
G06  22094505.962 6    873989.503 6     -2686.186          38.300  
G12  20201931.464 5   -229971.86425       808.022          30.400  
G19  23739460.284 5    125603.711 5     -2869.807          32.100  
G24  22822098.960 5    961767.564 5     -2842.623          35.000  
G25  21596477.240 6   -855750.751 6      2410.932          39.100  
G29  23580407.494 6   -358306.517 6      2404.886          39.400  
> 2020 06 10 20 09 11.4432855  0  8                     
G02  20898022.877 6    257618.866 6      -850.597          35.600  
G05  23489640.837 5   -162657.052 5      3277.470          30.300  
G06  22095018.314 6    876672.984 6     -2678.705          37.900  
G12  20201775.879 5   -230782.44925       814.960          29.600  
G19  23740011.309 4              24     -2860.950          28.800  
G24  22822634.996 5    964605.40415     -2832.462          33.700  
G25  21596017.965 6   -858163.727 6      2416.791          38.800  
G29  23579949.118 6   -360713.818 6      2411.655          39.100  
> 2020 06 10 20 09 12.4432855  0  8                     
G02  20898177.837 5    258465.595 5      -851.800          33.200  
G05  23489015.437 4   -165940.061 4      3279.888          29.100  
G06  22095527.029 6    879348.219 6     -2680.657          35.600  
G12  20201619.354 4   -231601.19214       812.634          27.900  
G19  23740546.106 4    131335.104 4     -2862.046          27.400  
G24  22823177.887 5    967433.398 5     -2831.545          30.400  
G25  21595556.552 6   -860583.457 6      2413.729          37.000  
G29  23579490.103 6   -363128.363 6      2409.688          36.700  
> 2020 06 10 20 09 13.4432855  0  8                     
G02  20898346.253 5    259318.514 5      -850.979          34.700  
G05  23488393.300 5   -169220.84015      3283.799          29.800  
G06  22096036.609 6    882030.603 6     -2681.487          37.800  
G12  20201464.894 4   -232411.56214       813.084          28.300  
G19  23741094.059 4    134198.20314     -2861.967          27.300  
G24  22823715.647 5    970263.959 5     -2826.908          35.100  
G25  21595099.001 6   -862995.617 6      2413.967          38.200  
G29  23579032.252 6   -365537.619 6      2412.013          38.200  
> 2020 06 10 20 09 14.4432855  0  8                     
G02  20898507.835 6    260176.405 6      -863.896          36.500  
G05  23487762.831 5   -172499.42225      3273.556          33.500  
G06  22096545.051 6    884720.147 6     -2696.543          38.900  
G12  20201310.195 5   -233218.794 5       801.386          30.900  
G19  23741635.479 5    137068.237 5     -2877.151          30.900  
G24  22824251.371 6    973095.127 6     -2834.921          37.700  
G25  21594639.713 6   -865402.821 6      2401.769          39.100  
G29  23578573.564 6   -367944.490 6      2402.885          39.300  
> 2020 06 10 20 09 15.4432855  0  8                     
G02  20898673.042 6    261044.823 6      -872.154          36.200  
G05  23487141.083 5   -175769.01725      3266.248          33.700  
G06  22097062.514 6    887421.917 6     -2705.737          37.800  
G12  20201159.420 5   -234015.785 5       793.218          31.500  
G19  23742187.118 5    139950.571 5     -2886.184          29.700  
G24  22824794.615 6    975933.299 6     -2841.584          38.500  
G25  21594187.347 6   -867800.464 6      2393.719          38.700  
G29  23578117.901 6   -370343.919 6      2395.678          39.700  
> 2020 06 10 20 09 16.4432854  0  8                     
G02  20898808.186 6    261918.233 6      -870.901          36.200  
G05  23486497.366 5   -179034.66325      3269.287          32.900  
G06  22097547.516 6    890129.033 6     -2704.684          38.800  
G12  20200980.682 5   -234807.588 5       794.168          30.000  
G19  23742708.395 5    142837.776 5     -2884.355          30.400  
G24  22825303.301 6    978775.862 6     -2839.528          38.500  
G25  21593700.122 6   -870192.521 6      2394.014          38.500  
G29  23577631.575 6   -372738.037 6      2396.287          38.800  
> 2020 06 10 20 09 17.4432854  0  8                     
G02  20898974.755 6    262786.970 6      -870.776          36.400  
G05  23485866.787 5   -182307.34315      3271.236          31.400  
G06  22098061.545 6    892831.859 6     -2705.434          38.600  
G12  20200825.274 5   -235603.590 5       793.907          30.100  
G19  23743254.202 5    145719.850 5     -2884.552          32.000  
G24  22825844.011 6    981612.582 6     -2837.848          38.500  
G25  21593241.924 6   -872587.977 6      2393.121          38.000  
G29  23577176.974 6   -375136.264 6      2396.402          39.400  
> 2020 06 10 20 09 18.4432854  0  8                     
G02  20899140.539 6    263663.877 6      -881.443          36.800  
G05  23485244.416 5   -185573.65815      3263.125          31.800  
G06  22098575.987 6    895544.108 6     -2717.223          38.500  
G12  20200687.368 5   -236390.791 5       783.208          30.100  
G19  23743798.323 5    148610.968 5     -2895.953          31.500  
G24  22826386.334 6    984455.01816     -2845.182          38.100  
G25  21592792.234 6   -874974.937 6      2382.521          38.300  
G29  23576718.890 6   -377527.367 6      2387.412          40.100  
> 2020 06 10 20 09 19.4432854  0  8                     
G02  20899313.964 6    264546.96116      -884.109          36.100  
G05  23484631.786 5              25      3258.550          30.900  
G06  22099098.670 6    898263.75816     -2720.157          37.000  
G12  20200535.218 5   -237172.65615       780.879          30.300  
G19  23744357.281 5    151508.98115     -2897.965          31.900  
G24  22826926.405 6    987301.890 6     -2848.049          38.400  
G25  21592334.895 6   -877355.42116      2380.119          37.600  
G29  23576264.849 6   -379913.210 6      2385.933          39.500  
> 2020 06 10 20 09 20.4432854  0  8                     
G02  20899477.241 6    265432.585 6      -884.372          36.200  
G05  23484002.111 5   -192084.031 5      3262.569          33.400  
G06  22099612.404 6    900984.700 6     -2720.040          38.300  
G12  20200376.518 5   -237951.893 5       780.092          30.200  
G19  23744908.190 5    154408.15225     -2897.180          30.200  
G24  22827468.020 6    990150.298 6     -2846.705          38.000  
G25  21591882.099 6   -879734.684 6      2379.482          38.300  
G29  23575814.451 6   -382298.62516      2385.690          39.100  
> 2020 06 10 20 09 21.4432853  0  8                     
G02  20899616.269 6    266312.938 6      -876.672          36.400  
G05  23483353.885 5   -195352.517 5      3273.752          34.200  
G06  22100100.391 6    903700.499 6     -2712.071          38.800  
G12  20200212.157 5   -238735.334 5       786.568          29.700  
G19  23745423.458 4    157300.18114     -2887.637          28.500  
G24  22827974.295 6    992992.820 6     -2838.779          36.600  
G25  21591400.257 6   -882116.764 6      2384.375          39.200  
G29  23575328.112 6   -384686.844 6      2390.412          38.900  
> 2020 06 10 20 09 22.4432853  0  8                     
G02  20899781.686 6    267190.390 6      -879.789          36.700  
G05  23482733.246 5   -198626.670 5      3273.314          32.600  
G06  22100616.865 6    906413.857 6     -2716.288          38.200  
G12  20200047.202 4   -239520.772 4       782.773          29.300  
G19  23745963.016 4    160188.75014     -2891.903          25.800  
G24  22828521.048 6    995831.937 6     -2840.028          36.400  
G25  21590946.902 6   -884499.123 6      2379.485          38.500  
G29  23574872.060 6   -387075.555 6      2386.698          39.400  
> 2020 06 10 20 09 23.4432853  0  8                     
G02  20899951.054 6    268068.329 6      -874.377          35.700  
G05  23482109.663 5   -201903.190 5      3281.200          31.000  
G06  22101131.594 6    909129.003 6     -2712.638          37.200  
G12  20199899.690 4   -240305.455 4       788.476          28.700  
G19  23746534.406 4    163080.22914     -2887.465          27.600  
G24  22829057.662 6    998668.187 6     -2830.623          37.000  
G25  21590492.702 6   -886880.579 6      2385.357          37.700  
G29  23574419.658 6   -389465.290 6      2394.975          38.800  
> 2020 06 10 20 09 24.4432853  0  8                     
G02  20900115.254 6    268942.787 6      -876.728          36.300  
G05  23481483.010 5   -205184.880 5      3281.246          31.900  
G06  22101642.654 5    911843.235 5     -2716.827          35.400  
G12  20199751.806 5   -241094.258 5       786.683          30.200  
G19  23747078.443 5    165968.822 5     -2890.957          30.800  
G24  22829598.701 6   1001496.428 6     -2828.425          38.100  
G25  21590041.428 6   -889266.540 6      2383.900          37.600  
G29  23573961.489 6   -391861.694 6      2396.173          39.300  
> 2020 06 10 20 09 25.4432853  0  8                     
G02  20900281.298 5    269821.219 5      -877.551          35.300  
G05  23480863.598 5   -208465.245 5      3282.904          32.400  
G06  22102164.551 6    914562.426 6     -2718.397          37.100  
G12  20199611.461 5   -241879.023 5       785.452          30.600  
G19  23747630.019 5    168862.173 5     -2891.791          31.500  
G24  22830136.787 6   1004325.608 6     -2827.814          38.000  
G25  21589585.403 6   -891648.451 6      2381.927          37.200  
G29  23573504.264 6   -394256.233 6      2394.921          38.400  
> 2020 06 10 20 09 26.4432853  0  8                     
G02  20900448.283 6    270696.007 6      -873.481          36.200  
G05  23480235.234 5   -211752.199 5      3289.721          34.900  
G06  22102684.393 6    917277.944 6     -2714.121          38.700  
G12  20199453.772 5   -242666.308 5       787.858          31.300  
G19  23748182.238 5    171750.413 5     -2885.890          34.200  
G24  22830674.016 6   1007151.114 6     -2824.301          38.500  
G25  21589133.317 6   -894031.229 6      2382.601          38.100  
G29  23573048.881 6   -396651.609 6      2395.084          38.100  
> 2020 06 10 20 09 27.4432853  0  8                     
G02  20900614.591 6    271572.018 6      -877.683          35.900  
G05  23479604.693 5   -215041.160 5      3288.734          35.200  
G06  22103199.659 6    919994.612 6     -2718.660          38.200  
G12  20199300.201 5   -243451.391 5       783.078          31.900  
G19  23748726.284 5    174638.216 5     -2889.268          33.700  
G24  22831210.567 6   1009977.246 6     -2826.867          37.800  
G25  21588679.054 6   -896410.304 6      2376.774          38.100  
G29  23572596.716 6   -399043.567 6      2390.203          38.600  
> 2020 06 10 20 09 28.4432852  0  8                     
G02  20900750.238 5    272448.135 5      -873.977          35.300  
G05  23478950.987 6   -218332.651 6      3294.896          36.100  
G06  22103688.761 6    922712.433 6     -2716.326          38.400  
G12  20199129.760 5   -244236.068 5       786.942          33.900  
G19  23749246.865 5    177526.428 5     -2886.258          35.000  
G24  22831717.957 6   1012801.025 6     -2819.839          39.400  
G25  21588197.128 6   -898788.487 6      2380.451          37.800  
G29  23572111.793 6   -401436.068 6      2395.993          37.700  
> 2020 06 10 20 09 29.4432852  0  8                     
G02  20900921.022 5    273324.553 5      -879.288          34.700  
G05  23478321.624 6   -221625.808 6      3291.248          36.300  
G06  22104204.306 6    925431.683 6     -2722.396          38.800  
G12  20198980.065 5   -245020.431 5       781.484          35.000  
G19  23749798.385 5    180415.648 5     -2892.122          35.200  
G24  22832256.286 6   1015622.396 6     -2823.394          39.700  
G25  21587743.444 6   -901166.447 6      2374.793          37.900  
G29  23571649.715 6   -403829.885 6      2391.096          37.900  
> 2020 06 10 20 09 30.4432852  0  8                     
G02  20901090.116 6    274204.266 6      -879.470          35.500  
G05  23477698.367 6   -224917.972 6      3293.680          36.100  
G06  22104722.658 6    928154.620 6     -2722.635          39.200  
G12  20198828.381 5   -245801.166 5       780.408          33.900  
G19  23750348.215 5    183307.565 5     -2890.823          34.800  
G24  22832789.328 6   1018445.540 6     -2822.969          38.900  
G25  21587291.968 6   -903540.240 6      2372.879          38.400  
G29  23571200.337 6   -406220.397 6      2389.661          38.600  
> 2020 06 10 20 09 31.4432852  0  8                     
G02  20901253.725 6    275081.351 6      -875.200          36.600  
G05  23477070.824 5   -228215.156 5      3300.325          34.900  
G06  22105241.821 6    930874.451 6     -2717.679          39.500  
G12  20198682.905 5   -246583.383 5       783.606          33.300  
G19  23750900.955 5    186195.026 5     -2884.485          32.600  
G24  22833329.477 6   1021266.938 6     -2819.619          37.700  
G25  21586844.001 6   -905913.831 6      2374.362          39.100  
G29  23570744.575 6   -408610.106 6      2390.347          39.400  
> 2020 06 10 20 09 32.4432852  0  8                     
G02  20901419.325 5    275956.628 5      -873.667          33.500  
G05  23476432.680 5   -231516.786 5      3304.661          30.500  
G06  22105759.078 6    933592.204 6     -2716.027          37.400  
G12  20198524.729 5   -247366.534 5       784.419          32.300  
G19  23751450.289 5    189078.28315     -2881.441          30.200  
G24  22833862.022 5   1024086.241 5     -2817.242          34.600  
G25  21586388.131 6   -908287.324 6      2374.345          37.000  
G29  23570290.204 6   -410999.840 6      2390.786          36.200  
> 2020 06 10 20 09 33.4432852  0  8                     
G02  20901584.404 5    276824.320 5      -858.917          33.300  
G05  23475809.006 4              24      3325.950          28.500  
G06  22106274.315 6    936302.216 6     -2700.674          37.200  
G12  20198376.525 5   -248156.40415       798.067          31.900  
G19  23751989.210 5    191953.07815     -2864.410          29.700  
G24  22834397.046 5   1026897.754 5     -2802.654          33.400  
G25  21585935.038 6   -910666.42916      2386.877          37.700  
G29  23569830.216 6   -413395.67316      2403.236          36.000  
> 2020 06 10 20 09 34.4432852  0  8                     
G02  20901748.852 6    277678.78316      -857.752          35.500  
G05  23475181.102 5              25      3324.500          29.600  
G06  22106786.222 6    938997.62216     -2698.492          38.400  
G12  20198230.388 5   -248958.26415       798.159          31.800  
G19  23752532.596 5    194811.71615     -2859.838          31.800  
G24  22834929.639 6   1029696.14516     -2802.517          37.000  
G25  21585481.914 6   -913055.97616      2385.013          40.200  
G29  23569378.891 6   -415801.09316      2400.521          37.100  
> 2020 06 10 20 09 35.4432852  0  8                     
G02  20901912.961 6    278541.995 6      -864.354          36.700  
G05  23474549.861 4   -241469.67824      3321.281          27.500  
G06  22107301.088 6    941700.846 6     -2704.676          39.500  
G12  20198072.519 5   -249750.59615       789.838          31.600  
G19  23753088.233 5    197675.23915     -2864.726          30.700  
G24  22835468.788 6   1032504.151 6     -2810.517          39.100  
G25  21585030.848 6   -915434.186 6      2374.685          41.100  
G29  23568923.328 6   -418194.422 6      2389.050          38.400  
> 2020 06 10 20 09 36.4432852  0  8                     
G02  20902076.255 6    279407.117 6      -861.707          37.500  
G05  23473914.209 4   -244791.89114      3325.918          27.400  
G06  22107814.240 6    944405.819 6     -2701.005          39.200  
G12  20197926.428 5   -250539.404 5       791.085          30.700  
G19  23753621.772 5    200539.24315     -2860.464          30.600  
G24  22836002.626 6   1035316.437 6     -2809.714          39.200  
G25  21584579.868 7   -917806.576 7      2373.717          41.700  
G29  23568466.652 6   -420580.238 6      2387.132          38.100  
> 2020 06 10 20 09 37.4432852  0  8                     
G02  20902240.558 6    280268.195 6      -863.706          37.400  
G05  23473283.462 5   -248119.26415      3327.425          30.500  
G06  22108332.597 6    947105.666 6     -2701.940          40.300  
G12  20197778.946 5   -251330.495 5       788.019          31.900  
G19  23754173.106 4    203396.20524     -2858.433          28.700  
G24  22836540.170 6   1038126.436 6     -2813.180          39.600  
G25  21584128.696 6   -920179.525 6      2369.241          41.400  
G29  23568012.482 6   -422966.006 6      2381.682          39.900  
> 2020 06 10 20 09 38.4432852  0  8                     
G02  20902402.689 6    281131.877 6      -861.878          37.400  
G05  23472640.650 4   -251447.21514      3330.985          28.800  
G06  22108842.188 6    949807.325 6     -2699.256          38.500  
G12  20197627.195 4   -252117.927 4       788.713          29.000  
G19  23754710.277 5    206254.32215     -2855.732          30.900  
G24  22837073.144 6   1040940.080 6     -2812.627          39.700  
G25  21583676.253 7   -922547.680 7      2368.825          41.700  
G29  23567561.838 6   -425346.325 6      2380.529          38.800  
> 2020 06 10 20 09 39.4432852  0  8                     
G02  20902570.112 6    281988.388 6      -857.195          37.000  
G05  23472010.925 5   -254784.107 5      3335.222          34.100  
G06  22109357.370 6    952500.227 6     -2692.276          38.200  
G12  20197476.838 4   -252912.13114       793.210          27.900  
G19  23755254.839 5    209101.48325     -2846.108          30.200  
G24  22837607.513 6   1043749.544 6     -2812.394          39.900  
G25  21583225.504 7   -924920.563 7      2371.519          41.900  
G29  23567106.592 6   -427729.573 6      2380.448          38.200  
> 2020 06 10 20 09 40.4432852  0  8                     
G02  20902730.774 6    282851.162 6      -864.167          37.500  
G05  23471382.533 5   -258112.984 5      3327.267          35.200  
G06  22109871.788 6    955197.086 6     -2697.543          37.900  
G12  20197317.921 4   -253698.90924       785.322          27.000  
G19  23755803.133 5    211951.81515     -2850.673          30.700  
G24  22838143.815 6   1046569.042 6     -2821.823          39.400  
G25  21582774.589 6   -927286.536 6      2364.790          41.400  
G29  23566654.778 6   -430103.564 6      2372.464          36.300  
> 2020 06 10 20 09 41.4432852  0  8                     
G02  20902897.634 6    283711.902 6      -856.403          37.300  
G05  23470745.051 6   -261443.624 6      3335.216          36.500  
G06  22110383.709 6    957890.531 6     -2688.953          38.000  
G12  20197182.591 4   -254487.72714       793.013          27.700  
G19  23756341.436 5    214797.984 5     -2841.279          29.500  
G24  22838679.121 6   1049388.139 6     -2815.268          38.600  
G25  21582320.580 7   -929654.562 7      2371.725          41.600  
G29  23566200.468 6   -432478.674 6      2378.533          36.000  
> 2020 06 10 20 09 42.4432852  0  8                     
G02  20903060.017 6    284569.366 6      -861.400          37.300  
G05  23470108.187 6   -264777.718 6      3331.284          37.800  
G06  22110894.151 6    960580.171 6     -2692.987          36.500  
G12  20197026.294 4   -255278.755 4       787.292          27.900  
G19  23756882.457 5    217639.547 5     -2844.174          30.000  
G24  22839214.146 6   1052205.109 6     -2821.621          38.300  
G25  21581874.384 6   -932024.469 6      2365.182          41.100  
G29  23565748.876 6   -434854.855 6      2370.996          35.600  
> 2020 06 10 20 09 43.4432852  0  8                     
G02  20903222.265 6    285428.415 6      -851.439          35.900  
G05  23469476.884 6   -268111.932 6      3342.924          37.000  
G06  22111405.057 5    963270.011 5     -2681.256          33.700  
G12  20196878.856 4   -256066.98514       788.652          25.300  
G19  23757414.049 5    220479.909 5     -2830.397          31.600  
G24  22839755.930 6   1055025.456 6     -2813.427          37.000  
G25  21581423.256 6   -934391.021 6      2373.281          40.600  
G29  23565298.348 6   -437226.640 6      2378.306          37.200  
> 2020 06 10 20 09 44.4432852  0  8                     
G02  20903381.544 6    286279.585 6      -853.876          35.800  
G05  23468837.516 6   -271455.36316      3340.137          35.600  
G06  22111913.295 5    965950.197 5     -2682.097          33.800  
G12  20196713.160 4   -256858.19714       793.831          23.700  
G19  23757966.056 5    223309.000 5     -2830.206          32.200  
G24  22840289.650 6   1057840.731 6     -2819.024          36.500  
G25  21580973.657 6   -936763.395 6      2368.825          39.800  
G29  23564847.849 6   -439602.528 6      2371.828          37.100  
> 2020 06 10 20 09 45.4432852  0  8                     
G02  20903544.613 6    287127.04716      -847.629          35.600  
G05  23468202.238 6   -274801.277 6      3347.028          37.800  
G06  22112423.823 5    968627.65115     -2677.818          32.700  
G12  20196583.632 4   -257656.22214       800.321          23.900  
G19  23758498.769 5    226132.73615     -2823.027          32.000  
G24  22840824.162 6   1060653.15216     -2812.804          35.900  
G25  21580517.055 6   -939137.77816      2374.881          38.600  
G29  23564398.143 6   -441980.03516      2377.311          36.200  
> 2020 06 10 20 09 46.4432852  0  8                     
G02  20903706.245 6    287977.716 6      -846.754          35.800  
G05  23467564.323 6   -278146.434 6      3349.408          36.900  
G06  22112932.615 5    971305.620 5     -2673.678          33.200  
G12  20196406.199 3              23       798.900          22.200  
G19  23759031.544 5    228957.732 5     -2820.151          32.200  
G24  22841357.537 6   1063469.642 6     -2813.033          36.000  
G25  21580066.511 6   -941508.975 6      2374.516          38.500  
G29  23563944.900 6   -444353.798 6      2376.815          36.500  
> 2020 06 10 20 09 47.4432852  0  8                     
G02  20903872.540 6    288822.997 6      -852.612          35.800  
G05  23466925.376 6   -281497.548 6      3344.021          37.100  
G06  22113443.971 5    973977.872 5     -2679.811          33.100  
G12  20196265.806 3   -259256.39923       794.089          23.400  
G19  23759576.178 5    231776.517 5     -2826.144          33.000  
G24  22841896.774 6   1066281.093 6     -2818.438          36.500  
G25  21579615.533 6   -943884.785 6      2368.452          37.600  
G29  23563487.027 5   -446731.744 5      2370.745          35.100  
> 2020 06 10 20 09 48.4432852  0  8                     
G02  20904030.115 5    289677.826 5      -847.509          34.800  
G05  23466290.899 6   -284839.899 6      3349.548          35.600  
G06  22113946.907 5    976659.817 5     -2674.627          32.800  
G12  20196126.586 3              23       799.050          21.800  
G19  23760109.093 5    234604.943 5     -2820.196          32.800  
G24  22842431.787 6   1069101.842 6     -2812.673          35.700  
G25  21579163.930 6   -946250.760 6      2374.125          37.300  
G29  23563039.321 5   -449100.824 5      2377.112          35.200  
> 2020 06 10 20 09 49.4432852  0  8                     
G02  20904189.709 5    290522.926 5      -847.415          35.400  
G05  23465655.743 6   -288190.513 6      3347.624          36.700  
G06  22114458.757 5    979331.625 5     -2673.761          33.800  
G12  20195959.406 3              23       799.400          21.800  
G19  23760647.924 5    237423.043 5     -2819.937          33.500  
G24  22842968.520 6   1071913.085 6     -2813.849          36.300  
G25  21578712.246 6   -948628.007 6      2375.933          37.900  
G29  23562582.542 5   -451480.193 5      2378.088          34.800  
> 2020 06 10 20 09 50.4432852  0  8                     
G02  20904353.077 5    291367.142 5      -842.259          35.400  
G05  23465015.367 6   -291539.483 6      3348.909          37.600  
G06  22114975.880 5    982001.944 5     -2668.074          32.800  
G12  20195792.403 3              23       804.800          22.100  
G19  23761179.737 5    240240.228 5     -2815.750          33.800  
G24  22843499.733 6   1074724.005 6     -2808.994          37.200  
G25  21578260.140 6   -951008.860 6      2385.106          37.700  
G29  23562128.937 6   -453862.879 6      2386.993          35.800  
> 2020 06 10 20 09 51.4432852  0  7                     
G02  20904514.551 6    292212.087 6      -844.448          36.600  
G05  23464378.794 6   -294884.160 6      3344.326          36.800  
G06  22115475.521 5    984672.909 5     -2670.672          34.100  
G12  20195666.976 3              23       805.100          22.100  
G24  22844038.047 6   1077535.265 6     -2809.869          38.400  
G25  21577807.940 6   -953393.258 6      2386.543          38.600  
G29  23561678.835 6   -456249.462 6      2389.289          36.200  
> 2020 06 10 20 09 52.4432852  0  7                     
G02  20904676.589 5    293055.85315      -845.021          35.200  
G05  23463735.889 4   -298226.95814      3335.555          28.800  
G06  22115989.215 5    987343.28315     -2672.720          33.300  
G12  20195483.054 3              23       804.250          21.300  
G24  22844576.924 6   1080343.18016     -2809.190          36.400  
G25  21577351.206 6   -955781.911 6      2388.754          37.600  
G29  23561230.195 5   -458641.380 5      2392.625          34.000  
> 2020 06 10 20 09 53.4432852  0  6                     
G02  20904831.703 5    293900.33815      -837.486          32.300  
G05  23463111.843 4              24      3353.400          26.200  
G12  20195365.057 3              23       820.150          21.500  
G24  22845100.183 6              26     -2791.600          37.400  
G25  21576895.343 5   -958178.82315      2402.380          34.900  
G29  23560786.024 4              24      2408.500          26.100  
> 2020 06 10 20 09 54.4432853  0  7                     
G02  20905020.243 5    294729.69815      -833.537          30.600  
G05  23462501.435 4   -304909.56024      3350.820          25.600  
G06                                                                
G12  20195252.604 3              23       808.750          20.100  
G24  22845667.660 5   1085948.92825     -2798.641          32.300  
G25  21576470.207 6   -960578.64916      2397.393          36.700  
G29  23560338.104 5   -463443.41725      2408.591          34.000  
> 2020 06 10 20 09 55.4432853  0  8                     
G02                                                                
G05  23461859.171 5   -308255.91215      3340.665          32.000  
G06  22117543.621 5    995360.236 5     -2678.618          31.300  
G12  20195085.512 3              23       801.100          21.300  
G19  23763890.779 4      1255.93424     -2828.845          26.400  
G24  22846203.581 6   1088749.15216     -2802.954          37.100  
G25  21576013.215 5   -962974.41915      2389.753          33.200  
G29  23559884.110 5   -465850.74015      2397.949          29.600  
> 2020 06 10 20 09 56.4432853  0  8                     
G02  20905345.344 6    296409.844 6      -838.813          36.900  
G05  23461223.247 5   -311603.58425      3351.111          32.000  
G06  22118047.208 6    998034.449 6     -2671.464          37.700  
G12  20194907.370 4   -266465.00524       808.552          24.300  
G19  23764436.037 4      4080.63214     -2820.449          26.200  
G24  22846732.350 4   1091543.63114     -2785.204          24.700  
G25  21575560.164 4   -965369.18414      2404.108          28.900  
G29  23559424.464 6              26      2411.800          36.800  
> 2020 06 10 20 09 57.4432853  0  7                     
G02  20905507.150 6    297258.489 6      -855.707          37.100  
G05  23460588.204 5   -314945.26925      3334.156          32.600  
G06  22118556.173 6   1000715.905 6     -2688.921          37.400  
G12  20194772.681 4   -267270.24614       799.653          25.300  
G24  22847264.999 5              25     -2804.800          34.000  
G25  21575102.898 6              26      2387.250          37.900  
G29  23558965.099 5   -470650.80025      2399.280          35.100  
> 2020 06 10 20 09 58.4432853  0  7                     
G02  20905667.201 6    298113.116 6      -849.723          36.700  
G05  23459961.600 5   -318280.01915      3339.383          30.900  
G06  22119069.080 6   1003404.102 6     -2683.671          36.700  
G12  20194608.956 4              24       806.700          23.500  
G24  22847799.791 6   1097125.667 6     -2796.624          36.700  
G25  21574647.476 6   -970166.442 6      2395.195          40.000  
G29  23558529.762 4   -473053.95014      2415.105          25.000  
> 2020 06 10 20 09 59.4432853  0  6                     
G02  20905832.416 6    298965.400 6      -857.848          37.300  
G05  23459320.373 5   -321616.152 5      3331.399          32.200  
G06  22119582.654 6   1006091.231 6     -2694.057          38.000  
G12  20194459.689 4   -268871.89524       799.492          24.600  
G24  22848326.256 6   1099923.015 6     -2799.419          36.800  
G25  21574193.020 6   -972560.587 6      2390.268          41.400  
> 2020 06 10 20 10 00.4432853  0  7                     
G02  20905991.904 6    299821.497 6      -854.634          36.200  
G05  23458686.310 5   -324949.721 5      3335.697          34.300  
G06  22120092.599 6   1008785.187 6     -2693.932          37.600  
G12  20194309.191 4   -269672.82914       804.113          26.800  
G24  22848858.985 5   1102717.193 5     -2789.765          33.900  
G25  21573739.132 6   -974954.121 6      2396.972          39.700  
G29  23557591.440 6     -1075.584 6      2418.083          38.900  
> 2020 06 10 20 10 01.4432854  0  8                     
G02  20906186.365 6    300681.067 6      -859.887          36.300  
G05  23458079.426 5   -328280.974 5      3332.027          34.800  
G06  22120641.115 6   1011484.900 6     -2700.176          38.300  
G12  20194180.776 4   -270472.266 4       798.959          29.200  
G19  23767156.456 4      1269.34724     -2854.353          27.700  
G24  22849421.891 5   1105510.039 5     -2792.069          34.400  
G25  21573312.723 6   -977346.823 6      2392.242          39.700  
G29  23557162.332 6     -3490.037 6      2414.757          39.400  
> 2020 06 10 20 10 02.4432854  0  8                     
G02  20906350.828 6    301535.756 6      -857.571          35.600  
G05  23457442.844 5   -331618.74215      3334.559          34.300  
G06  22121149.741 6   1014180.277 6     -2698.386          38.800  
G12  20194036.154 4   -271276.95314       800.922          28.900  
G19  23767705.554 4      4118.41114     -2849.920          24.700  
G24  22849959.296 3              23     -2790.650          22.000  
G25  21572853.019 6   -979743.736 6      2393.369          40.300  
G29  23556702.328 4     -5907.95514      2416.159          25.700  
> 2020 06 10 20 10 03.4432854  0  8                     
G02  20906517.188 4    302403.89714      -874.437          28.100  
G05  23456812.954 5              25      3338.250          30.700  
G06  22121665.658 6   1016886.74516     -2705.141          36.800  
G12  20193856.852 3              23       796.500          22.000  
G19  23768242.157 3      6972.20913     -2854.722          22.700  
G24  22850485.406 5              25     -2793.000          34.500  
G25  21572401.805 5              25      2389.150          33.500  
G29  23556242.421 6     -8318.448 6      2410.952          38.800  
> 2020 06 10 20 10 04.4432854  0  8                     
G02  20906675.574 6              26      -862.300          36.200  
G05  23456179.589 5   -338277.963 5      3333.001          35.300  
G06  22122176.600 6              26     -2704.850          35.800  
G12  20193731.935 4   -272865.15124       796.684          29.200  
G19  23768792.972 4      9828.01814     -2857.098          26.000  
G24  22851020.632 6   1113870.397 6     -2790.095          36.700  
G25  21571945.617 6   -984508.246 6      2389.450          39.300  
G29  23555783.835 6    -10734.479 6      2414.400          40.000  
> 2020 06 10 20 10 05.4432854  0  8                     
G02  20906841.749 6    304141.469 6      -866.146          35.700  
G05  23455547.716 5   -341608.711 5      3330.704          35.300  
G06  22122693.532 6   1022301.964 6     -2709.668          38.100  
G12  20193567.438 5   -273659.09025       793.587          29.700  
G19  23769343.780 4     12685.24814     -2859.415          28.800  
G24  22851547.157 6   1116661.689 6     -2790.364          38.200  
G25  21571490.921 6   -986895.471 6      2387.148          39.200  
G29  23555324.642 6    -13147.698 6      2414.205          39.700  
> 2020 06 10 20 10 06.4432854  0  8                     
G02  20907002.735 6    305004.441 6      -857.484          35.900  
G05  23454910.655 5   -344942.864 5      3339.751          34.300  
G06  22123209.173 6   1025009.498 6     -2701.999          37.600  
G12  20193425.634 4   -274455.87514       802.436          29.100  
G19  23769887.301 4     15545.78414     -2855.454          29.400  
G24  22852076.888 6   1119447.910 6     -2779.758          38.100  
G25  21571033.436 6   -989286.254 6      2396.721          38.500  
G29  23554864.159 6    -15565.545 6      2424.860          39.100  
> 2020 06 10 20 10 07.4432854  0  8                     
G02  20907170.895 6    305863.974 6      -866.243          35.700  
G05  23454268.776 5   -348280.893 5      3331.418          33.300  
G06  22123724.493 6   1027714.054 6     -2711.763          36.200  
G12  20193271.218 4   -275256.736 4       794.292          29.000  
G19  23770431.401 4     18403.73914     -2865.228          28.600  
G24  22852605.699 6   1122228.501 6     -2786.335          38.400  
G25  21570580.127 6   -991681.611 6      2389.126          37.800  
G29  23554402.755 6    -17990.12016      2412.816          37.900  
> 2020 06 10 20 10 08.4432854  0  8                     
G02  20907333.712 5    306725.550 5      -854.534          35.400  
G05  23453637.443 5   -351617.774 5      3344.545          33.600  
G06  22124238.966 6   1030421.288 6     -2700.326          35.600  
G12  20193112.058 4   -276055.764 4       806.166          28.800  
G19  23770959.066 4     21264.45614     -2853.386          27.300  
G24  22853134.263 6   1125009.114 6     -2773.029          37.900  
G25  21570125.671 6   -994075.807 6      2401.296          37.500  
G29  23553941.104 6              26      2432.900          39.200  
> 2020 06 10 20 10 09.4432854  0  8                     
G02  20907493.812 6    307584.583 6      -865.573          35.700  
G05  23453003.092 5   -354958.150 5      3334.083          34.000  
G06  22124751.921 6   1033126.236 6     -2711.665          36.400  
G12  20192969.966 5   -276857.44015       794.925          29.900  
G19  23771516.990 4     24122.28314     -2864.523          29.300  
G24  22853665.505 6   1127786.261 6     -2783.461          37.300  
G25  21569669.397 6   -996472.431 6      2389.901          38.100  
G29  23553480.333 6    -22834.442 6      2420.257          40.300  
> 2020 06 10 20 10 10.4432854  0  8                     
G02  20907661.853 6    308452.957 6      -869.383          36.300  
G05  23452369.788 5   -358290.23815      3331.282          31.300  
G06  22125272.519 6   1035840.615 6     -2715.381          37.000  
G12  20192816.330 4   -277649.59124       790.960          29.300  
G19  23772058.572 5     26989.06315     -2867.705          30.500  
G24  22854197.494 6   1130572.164 6     -2787.015          38.600  
G25  21569215.069 6   -998859.373 6      2385.692          38.900  
G29  23553021.509 6    -25252.151 6      2416.213          40.500  
> 2020 06 10 20 10 11.4432854  0  8                     
G02  20907828.142 6    309320.16416      -862.882          35.500  
G05  23451744.925 4   -361623.19014      3336.869          28.000  
G06  22125787.466 6   1038553.30516     -2709.578          37.100  
G12  20192661.541 4   -278442.70314       796.741          27.900  
G19  23772602.899 5     29853.95415     -2859.714          31.000  
G24  22854724.134 5   1133356.63815     -2780.552          34.300  
G25  21568762.586 6  -1001247.013 6      2390.246          39.800  
G29  23552559.132 6    -27670.843 6      2421.525          40.500  
> 2020 06 10 20 10 12.4432855  0  6                     
G02  20908027.596 4    310182.50514      -866.838          27.600  
G05  23451132.541 5   -364958.42915      3333.372          32.300  
G06  22126341.275 4   1041260.29614     -2706.549          25.500  
G12  20192558.505 3              23       798.500          20.600  
G19  23773169.899 4     32711.19814     -2854.977          24.100  
G24  22855281.240 5   1136132.66615     -2779.076          33.200  
> 2020 06 10 20 10 13.4432855  0  8                     
G02  20908187.506 5              25      -852.100          35.000  
G05  23450497.402 5   -368302.311 5      3353.342          33.700  
G06  22126849.244 6   1043962.63716     -2698.506          36.100  
G12  20192391.042 4              24       808.600          29.300  
G19  23773723.437 4              24     -2845.700          28.300  
G24  22855811.094 6   1138908.636 6     -2766.741          37.100  
G25  21567883.208 5              25      2401.900          34.500  
G29  23551667.163 6     -1083.192 6      2434.012          38.700  
> 2020 06 10 20 10 14.4432855  0  8                     
G02  20908352.941 6    311943.988 6      -868.446          37.000  
G05  23449857.294 5   -371648.118 5      3338.281          34.900  
G06  22127362.738 6   1046669.506 6     -2715.032          38.100  
G12  20192239.895 5   -280834.809 5       791.025          30.400  
G19  23774270.807 5     38403.595 5     -2864.224          30.300  
G24  22856339.278 6   1141683.444 6     -2782.538          38.700  
G25  21567425.074 6  -1008419.748 6      2384.206          39.300  
G29  23551203.633 6     -3508.202 6      2416.578          40.600  
> 2020 06 10 20 10 15.4432855  0  8                     
G02  20908519.009 6    312816.335 6      -875.958          36.100  
G05  23449224.715 5   -374982.894 5      3332.077          35.200  
G06  22127881.062 6   1049388.678 6     -2722.753          38.200  
G12  20192090.882 5   -281621.716 5       783.064          30.800  
G19  23774819.410 5     41271.770 5     -2871.302          33.100  
G24  22856872.292 6   1144469.740 6     -2789.368          39.200  
G25  21566972.071 6  -1010799.522 6      2375.994          39.300  
G29  23550751.229 6     -5920.500 6      2408.884          40.600  
> 2020 06 10 20 10 16.4432855  0  8                     
G02  20908683.514 6    313692.783 6      -872.410          36.300  
G05  23448589.673 5   -378315.658 5      3337.560          34.800  
G06  22128397.223 6   1052111.868 6     -2719.450          37.200  
G12  20191941.804 5   -282404.342 5       786.657          30.100  
G19  23775363.752 5     44142.985 5     -2867.213          31.600  
G24  22857402.244 6   1147258.615 6     -2783.919          38.300  
G25  21566519.603 6  -1013175.062 6      2379.710          38.300  
G29  23550291.566 6     -8329.451 6      2413.712          39.200  
> 2020 06 10 20 10 17.4432855  0  8                     
G02  20908849.031 6    314564.301 6      -876.795          36.100  
G05  23447958.642 5   -381654.621 5      3334.011          33.500  
G06  22128919.493 6   1054830.937 6     -2724.802          37.500  
G12  20191792.538 4   -283192.141 4       782.613          28.900  
G19  23775910.305 5     47009.870 5     -2872.564          30.800  
G24  22857929.310 6   1150040.523 6     -2786.670          38.700  
G25  21566067.847 6  -1015555.856 6      2375.417          38.800  
G29  23549832.316 6    -10744.767 6      2410.143          40.600  
> 2020 06 10 20 10 18.4432855  0  8                     
G02  20909014.717 6    315442.914 6      -880.297          36.100  
G05  23447319.985 5   -384987.202 5      3331.550          34.800  
G06  22129435.038 6   1057558.294 6     -2728.439          37.500  
G12  20191645.842 5   -283972.216 5       778.825          30.500  
G19  23776458.228 5     49884.348 5     -2875.814          33.800  
G24  22858462.243 6   1152828.713 6     -2789.751          38.800  
G25  21565617.161 6  -1017929.047 6      2371.228          39.000  
G29  23549372.636 6    -13152.868 6      2406.011          40.100  
> 2020 06 10 20 10 19.4432855  0  8                     
G02  20909186.339 6    316328.279 6      -887.536          35.700  
G05  23446689.062 6   -388314.582 6      3325.832          36.300  
G06  22129955.018 6   1060291.416 6     -2734.976          37.400  
G12  20191499.983 5   -284745.613 5       771.115          32.500  
G19  23777006.988 5     52764.055 5     -2881.193          35.200  
G24  22858991.816 6   1155623.473 6     -2797.183          38.600  
G25  21565166.413 6  -1020294.790 6      2363.105          37.900  
G29  23548915.892 6    -15553.601 6      2397.948          39.400  
> 2020 06 10 20 10 20.4432855  0  8                     
G02  20909351.490 5    317212.927 5      -880.173          34.500  
G05  23446054.367 5   -391643.621 5      3334.253          35.000  
G06  22130474.823 6   1063023.385 6     -2727.174          38.000  
G12  20191347.653 5   -285519.316 5       777.908          33.100  
G19  23777554.974 5     55641.737 5     -2872.337          35.000  
G24  22859522.115 6   1158418.073 6     -2790.360          37.900  
G25  21564714.591 6  -1022660.080 6      2369.245          37.500  
G29  23548458.074 6    -17953.467 6      2403.705          39.100  
> 2020 06 10 20 10 21.4432855  0  8                     
G02  20909518.773 5    318087.978 5      -872.290          34.700  
G05  23445413.410 5   -394983.574 5      3343.412          34.700  
G06  22130996.162 6   1065745.101 6     -2718.515          38.900  
G12  20191196.857 5   -286301.941 5       784.992          33.100  
G19  23778094.000 5     58508.076 5     -2862.285          34.000  
G24  22860062.040 6   1161203.915 6     -2783.693          37.200  
G25  21564264.902 6  -1025033.599 6      2375.438          38.000  
G29  23547999.391 6    -20361.006 6      2409.058          39.100  
> 2020 06 10 20 10 22.4432855  0  8                     
G02  20909684.586 5    318964.013 5      -878.752          34.300  
G05  23444782.674 5   -398324.037 5      3338.261          34.400  
G06  22131510.633 6   1068466.660 6     -2723.791          38.100  
G12  20191050.286 5   -287082.719 5       777.581          31.600  
G19  23778642.647 5     61372.737 5     -2866.084          33.200  
G24  22860584.905 5   1163992.192 5     -2792.096          34.900  
G25  21563814.641 6  -1027404.141 6      2366.616          38.500  
G29  23547543.434 6    -22764.634 6      2398.922          38.600  
> 2020 06 10 20 10 23.4432855  0  8                     
G02  20909858.130 6    319845.372 6      -881.728          35.600  
G05  23444147.078 5   -401660.292 5      3336.492          31.500  
G06  22132034.035 6   1071192.342 6     -2725.377          38.300  
G12  20190906.650 5   -287857.032 5       773.298          31.800  
G19  23779190.033 5     64240.270 5     -2866.363          32.600  
G24  22861117.901 5   1166788.284 5     -2797.689          35.300  
G25  21563365.516 6  -1029766.772 6      2360.979          40.000  
G29  23547087.714 6    -25158.779 6      2391.758          38.200  
> 2020 06 10 20 10 24.4432855  0  8                     
G02  20910021.122 5    320722.097 5      -871.911          34.400  
G05  23443508.125 4   -405002.51614      3348.275          28.900  
G06  22132548.084 6   1073911.939 6     -2713.835          38.300  
G12  20190757.557 5   -288634.988 5       782.258          31.300  
G19  23779731.063 5     67100.065 5     -2852.764          31.100  
G24  22861649.637 6   1169581.851 6     -2789.601          36.200  
G25  21562913.334 6  -1032131.802 6      2368.814          40.800  
G29  23546629.236 6    -27554.049 6      2398.581          38.300  
> 2020 06 10 20 10 25.4432855  0  8                     
G02  20910186.672 6    321596.322 6      -875.843          35.900  
G05  23442882.823 4   -408348.456 4      3344.740          28.600  
G06  22133066.790 6   1076626.925 6     -2715.347          38.700  
G12  20190606.527 5   -289414.244 5       776.976          29.700  
G19  23780273.453 4     69952.88014     -2851.547          29.400  
G24  22862181.534 6   1172376.300 6     -2798.327          37.200  
G25  21562465.809 7  -1034496.588 7      2361.553          41.600  
G29  23546174.516 6    -29946.933 6      2388.305          38.600  
> 2020 06 10 20 10 26.4432855  0  8                     
G02  20910349.864 6    322468.239 6      -867.383          36.600  
G05  23442234.177 4   -411697.408 4      3353.990          29.100  
G06  22133578.041 6   1079337.030 6     -2704.459          38.100  
G12  20190461.532 4   -290194.69514       784.385          26.700  
G19  23780815.282 5     72799.316 5     -2839.907          31.900  
G24  22862712.871 6   1175172.930 6     -2793.670          37.500  
G25  21562012.927 6  -1036860.407 6      2367.266          41.400  
G29  23545722.533 6    -32336.132 6      2391.735          40.200  
> 2020 06 10 20 10 27.4432855  0  8                     
G02  20910514.559 6    323335.604 6      -871.545          37.000  
G05  23441598.426 5   -415051.959 5      3350.706          31.100  
G06  22134096.191 6   1082040.606 6     -2707.373          38.200  
G12  20190323.737 4   -290978.76014       779.168          25.800  
G19  23781352.619 5     75637.639 5     -2841.772          31.800  
G24  22863244.812 6   1177967.460 6     -2799.076          38.100  
G25  21561561.848 6  -1039227.143 6      2362.311          40.900  
G29  23545267.557 6    -34726.816 6      2385.979          40.500  
> 2020 06 10 20 10 28.4432855  0  8                     
G02  20910685.309 5    324211.030 5      -872.374          35.300  
G05  23440957.938 4   -418399.121 4      3351.025          27.400  
G06  22134608.705 6   1084751.723 6     -2708.093          36.500  
G12  20190169.812 3   -291753.17513       771.984          23.000  
G19  23781891.814 5     78482.700 5     -2841.277          29.600  
G24  22863774.114 6   1180770.151 6     -2798.965          37.200  
G25  21561115.326 6  -1041585.696 6      2361.820          40.000  
G29  23544812.341 6    -37109.227 6      2386.583          39.100  
> 2020 06 10 20 10 29.4432856  0  8                     
G02  20910877.454 6    325074.747 6      -863.685          36.100  
G05  23440344.540 4   -421759.51414      3359.926          26.600  
G06  22135156.403 6   1087451.237 6     -2699.775          36.400  
G12  20190037.880 3              23       787.950          21.000  
G19  23782467.393 5     81315.780 5     -2833.311          29.600  
G24  22864340.999 6   1183560.017 6     -2789.742          37.200  
G25  21560696.493 6  -1043956.263 6      2370.469          40.600  
G29  23544387.812 6    -39504.285 6      2394.882          38.800  
> 2020 06 10 20 10 30.4432856  0  8                     
G02  20911042.490 6    325945.722 6      -873.561          36.600  
G05  23439710.929 4   -425112.010 4      3350.745          28.600  
G06  22135673.995 6   1090158.254 6     -2709.241          35.800  
G12                                                                
G19  23783002.973 4     84156.582 4     -2842.134          28.800  
G24  22864868.784 6   1186356.817 6     -2799.677          37.900  
G25  21560244.257 6  -1046319.201 6      2360.188          40.700  
G29  23543934.377 6    -41891.856 6      2384.666          38.300  
> 2020 06 10 20 10 31.4432856  0  8                     
G02  20911210.407 6    326816.418 6      -867.545          37.200  
G05  23439074.203 5   -428465.265 5      3355.959          32.000  
G06  22136182.176 6   1092864.351 6     -2702.924          37.800  
G12  20189728.678 3              23       787.900          20.700  
G19  23783545.031 4     86995.507 4     -2835.830          28.300  
G24  22865400.949 6   1189154.233 6     -2794.584          38.400  
G25  21559791.603 6  -1048682.206 6      2366.381          40.900  
G29  23543478.725 6    -44278.832 6      2390.235          38.700  
> 2020 06 10 20 10 32.4432856  0  8                     
G02  20911374.498 5    327683.32815      -865.851          34.500  
G05  23438443.245 4              24      3357.800          27.500  
G06  22136700.622 5   1095566.520 5     -2700.851          34.800  
G12                                                                
G19  23784077.567 4     89830.25214     -2835.917          26.600  
G24  22865931.087 6   1191948.152 6     -2792.438          35.600  
G25  21559339.621 6  -1051049.530 6      2368.868          37.600  
G29  23543019.548 6    -46669.992 6      2393.001          36.400  
> 2020 06 10 20 10 33.4432856  0  8                     
G02  20911540.488 6    328544.720 6      -859.557          37.000  
G05  23437789.902 5              25      3363.650          29.500  
G06  22137213.772 6   1098263.044 6     -2694.908          36.900  
G12  20189460.074 3              23       790.950          20.800  
G19  23784617.398 4     92661.50314     -2827.513          25.700  
G24  22866465.222 6   1194735.938 6     -2785.287          37.700  
G25  21558892.235 6  -1053423.146 6      2376.026          40.300  
G29  23542567.066 6    -49067.828 6      2400.656          38.700  
> 2020 06 10 20 10 34.4432856  0  8                     
G02  20911706.761 6    329407.510 6      -864.617          37.700  
G05  23437163.524 4   -438519.55524      3358.309          27.400  
G06  22137725.706 6   1100960.987 6     -2699.103          36.600  
G12                                                                
G19  23785159.611 4     95490.98514     -2830.982          28.500  
G24  22866997.542 6   1197524.135 6     -2791.315          39.000  
G25  21558440.337 7  -1055796.580 7      2371.415          41.600  
G29  23542108.872 6    -51466.064 6      2395.485          39.200  
> 2020 06 10 20 10 35.4432856  0  8                     
G02  20911870.104 6    330268.816 6      -861.396          37.500  
G05  23436513.230 5   -441880.28725      3360.014          31.200  
G06  22138238.607 6   1103655.726 6     -2693.841          37.600  
G12  20189154.430 4   -297244.93824       790.253          23.800  
G19  23785710.886 5     98317.67325     -2825.560          30.700  
G24  22867529.630 6   1200314.164 6     -2791.714          39.400  
G25  21557988.206 6  -1058170.972 6      2374.256          41.400  
G29  23541656.441 6    -53863.354 6      2396.231          38.100  
> 2020 06 10 20 10 36.4432856  0  8                     
G02  20912031.102 6    331135.432 6      -866.941          37.400  
G05  23435877.679 4   -445234.72614      3354.291          28.700  
G06  22138752.460 6   1106354.227 6     -2698.799          37.000  
G12  20188985.955 3              23       787.350          22.100  
G19  23786233.433 4    101147.69514     -2830.013          28.500  
G24  22868056.973 6   1203111.747 6     -2797.651          39.100  
G25  21557541.224 6  -1060540.250 6      2369.147          40.800  
G29  23541198.667 6    -56254.190 6      2390.811          38.900  
> 2020 06 10 20 10 37.4432857  0  8                     
G02  20912229.552 6    332006.515 6      -878.950          37.800  
G05  23435268.789 5   -448585.213 5      3343.323          30.800  
G06  22139295.073 6   1109057.628 6     -2711.660          37.400  
G12  20188877.119 3              23       774.050          22.100  
G19  23786803.326 4    103981.78214     -2842.251          28.400  
G24  22868621.470 6   1205912.833 6     -2808.032          39.200  
G25  21557118.805 7  -1062905.233 7      2357.133          41.600  
G29  23540775.048 6    -58641.233 6      2379.699          39.500  
> 2020 06 10 20 10 38.4432857  0  8                     
G02  20912397.218 6    332889.413 6      -884.550          37.900  
G05  23434635.709 5   -451925.651 5      3339.336          30.800  
G06  22139817.093 6   1111773.538 6     -2717.764          37.500  
G12  20188750.988 4   -299579.30724       765.549          23.700  
G19  23787350.829 4    106828.46214     -2848.417          28.500  
G24  22869155.183 6   1208723.662 6     -2812.232          39.900  
G25  21556670.697 6  -1065258.449 6      2351.187          41.400  
G29  23540321.844 6    -61017.703 6      2374.534          39.500  
> 2020 06 10 20 10 39.4432857  0  8                     
G02  20912566.694 6    333774.306 6      -884.662          37.700  
G05  23434001.441 4   -455265.479 4      3340.938          29.300  
G06  22140332.529 6   1114491.558 6     -2718.041          37.800  
G12  20188587.394 4   -300343.34214       764.485          24.500  
G19  23787900.142 4              24     -2848.050          27.300  
G24  22869691.005 6   1211535.768 6     -2811.019          39.600  
G25  21556224.099 6  -1067608.912 6      2350.625          41.300  
G29  23539870.449 6    -63391.677 6      2374.687          39.100  
> 2020 06 10 20 10 40.4432857  0  8                     
G02  20912733.550 6    334661.640 6      -888.925          37.200  
G05  23433367.551 5   -458604.385 5      3337.954          30.100  
G06  22140849.843 6   1117212.838 6     -2723.266          37.700  
G12  20188425.978 3   -301106.97013       762.759          23.200  
G19  23788422.852 4    112534.03324     -2853.209          25.300  
G24  22870226.606 6   1214348.088 6     -2812.628          39.200  
G25  21555776.381 7  -1069957.212 7      2346.947          41.600  
G29  23539421.831 6    -65764.791 6      2372.529          38.900  
> 2020 06 10 20 10 41.4432857  0  8                     
G02  20912904.539 6    335546.896 6      -884.868          37.600  
G05  23432724.004 5   -461946.784 5      3343.491          32.400  
G06  22141365.293 6   1119932.759 6     -2719.734          37.100  
G12  20188298.673 3   -301872.05513       765.755          23.400  
G19  23788973.978 4    115383.08414     -2848.628          23.500  
G24  22870761.543 6   1217156.325 6     -2807.373          38.700  
G25  21555328.298 7  -1072307.689 7      2350.617          41.700  
G29  23538967.453 6    -68141.196 6      2376.820          39.400  
> 2020 06 10 20 10 42.4432857  0  8                     
G02  20913074.954 6    336439.162 6      -897.844          37.300  
G05  23432089.177 5   -465283.84015      3331.874          29.900  
G06  22141880.470 6   1122660.103 6     -2732.876          37.000  
G12  20188148.610 3              23       757.350          22.000  
G19  23789535.022 4    118236.72514     -2859.832          25.500  
G24  22871295.606 6   1219970.362 6     -2819.064          38.300  
G25  21554882.040 7  -1074650.748 7      2337.637          42.000  
G29  23538516.998 6    -70510.871 6      2364.558          39.600  
> 2020 06 10 20 10 43.4432857  0  8                     
G02  20913244.591 6    337339.253 6      -901.483          37.500  
G05  23431463.764 5   -468613.086 5      3327.219          32.900  
G06  22142404.161 6   1125394.941 6     -2735.688          36.800  
G12  20188027.448 3              23       748.350          20.200  
G19  23790069.506 4    121099.90124     -2863.953          29.400  
G24  22871831.889 6   1222791.975 6     -2823.912          38.900  
G25  21554438.002 7  -1076986.477 7      2334.644          41.800  
G29  23538072.061 6    -72873.257 6      2360.851          40.200  
> 2020 06 10 20 10 44.4432857  0  8                     
G02  20913413.711 6    338242.194 6      -900.428          36.600  
G05  23430825.843 5   -471937.94915      3326.435          30.800  
G06  22142924.038 6   1128131.736 6     -2733.930          36.500  
G12                                                                
G19  23790617.264 4    123965.13414     -2862.427          29.100  
G24  22872371.552 6   1225617.729 6     -2823.218          38.600  
G25  21553995.545 6  -1079320.498 6      2337.737          41.100  
G29  23537616.413 6    -75233.334 6      2363.909          39.000  
> 2020 06 10 20 10 45.4432856  0  8                     
G02  20913558.983 6    339140.886 6      -898.910          36.600  
G05  23430166.772 5   -475264.445 5      3325.121          30.000  
G06  22143415.871 6   1130863.729 6     -2731.621          37.100  
G12                                                                
G19  23791124.386 4    126826.17414     -2860.664          28.500  
G24  22872882.272 6   1228440.164 6     -2823.350          39.000  
G25  21553518.748 7  -1081660.975 7      2341.174          41.500  
G29  23537138.417 6    -77599.314 6      2366.406          39.400  
> 2020 06 10 20 10 46.4432856  0  8                     
G02  20913728.331 6    340034.143 6      -888.734          36.900  
G05  23429538.972 5   -478594.125 5      3332.826          31.400  
G06  22143940.173 6   1133589.037 6     -2720.506          37.000  
G12                                                                
G19  23791670.873 4    129680.83114     -2850.042          27.200  
G24  22873416.767 6   1231258.476 6     -2814.664          40.200  
G25  21553072.023 6  -1084008.951 6      2353.277          41.300  
G29  23536685.096 6    -79972.143 6      2377.829          38.500  
> 2020 06 10 20 10 47.4432856  0  8                     
G02  20913897.336 6    340928.393 6      -900.050          37.300  
G05  23428899.137 5   -481920.432 5      3319.374          30.500  
G06  22144452.141 6   1136314.492 6     -2730.676          36.600  
G12  20187413.870 3   -306371.37823       754.227          23.200  
G19  23792219.116 4    132535.92814     -2860.550          28.300  
G24  22873953.018 6   1234079.448 6     -2827.718          38.100  
G25  21552625.854 6  -1086357.519 6      2343.272          41.000  
G29  23536237.128 6    -82344.599 6      2366.664          38.600  
> 2020 06 10 20 10 48.4432856  0  8                     
G02  20914064.840 6    341829.122 6      -894.479          36.800  
G05  23428267.993 4   -485238.590 4      3324.732          29.200  
G06  22144972.500 6   1139045.152 6     -2724.190          36.800  
G12  20187273.787 3              23       759.950          22.700  
G19  23792748.769 5    135396.929 5     -2853.370          30.800  
G24  22874491.065 6   1236908.619 6     -2823.012          37.300  
G25  21552179.982 6  -1088700.620 6      2349.419          40.700  
G29  23535782.263 6    -84710.739 6      2372.651          38.000  
> 2020 06 10 20 10 49.4432856  0  8                     
G02  20914242.511 6    342721.252 6      -894.839          37.000  
G05  23427632.327 4   -488566.048 4      3325.338          29.400  
G06  22145491.335 6   1141767.398 6     -2725.279          37.100  
G12  20187124.085 4              24       756.300          25.200  
G19  23793296.383 5    138248.546 5     -2854.373          32.100  
G24  22875024.889 6   1239728.493 6     -2821.585          39.100  
G25  21551734.085 6  -1091052.405 6      2349.247          41.400  
G29  23535332.168 6    -87085.892 6      2373.130          38.800  
> 2020 06 10 20 10 50.4432856  0  8                     
G02  20914405.464 6    343617.438 6      -894.984          37.600  
G05  23427001.430 5   -491890.871 5      3327.033          30.100  
G06  22146009.842 6   1144494.263 6     -2725.466          37.400  
G12  20186967.459 4   -308622.45524       758.041          23.500  
G19  23793843.371 5    141104.301 5     -2853.847          32.000  
G24  22875564.082 6   1242550.881 6     -2820.840          39.100  
G25  21551286.061 6  -1093399.914 6      2348.283          41.200  
G29  23534881.746 6    -89457.600 6      2372.646          38.100  
> 2020 06 10 20 10 51.4432856  0  8                     
G02  20914575.741 6    344504.192 6      -881.879          37.500  
G05  23426364.366 5   -495226.628 5      3341.064          31.200  
G06  22146526.080 6   1147211.641 6     -2712.619          37.100  
G12  20186816.358 4   -309387.39114       770.782          24.900  
G19  23794383.292 5    143949.630 5     -2840.333          31.500  
G24  22876100.106 6   1245363.400 6     -2807.381          39.500  
G25  21550837.266 6  -1095755.914 6      2360.624          40.500  
G29  23534429.954 6    -91837.973 6      2385.155          38.800  
> 2020 06 10 20 10 52.4432856  0  8                     
G02  20914744.162 5    345389.101 5      -882.669          34.400  
G05  23425726.645 4   -498565.34514      3341.788          28.100  
G06  22147042.559 5   1149927.198 5     -2713.352          33.500  
G12                                                                
G19  23794937.545 4              24     -2839.800          25.900  
G24  22876632.774 6   1248173.457 6     -2807.712          35.700  
G25  21550389.913 6  -1098113.386 6      2359.624          38.000  
G29  23533972.708 5    -94220.122 5      2384.525          35.400  
> 2020 06 10 20 10 53.4432857  0  8                     
G02  20914944.817 6    346265.695 6      -878.125          37.500  
G05  23425128.054 5   -501912.61415      3344.895          32.000  
G06  22147591.873 6   1152634.484 6     -2708.543          37.300  
G12  20186575.357 3              23       775.250          22.100  
G19  23795496.153 4    149629.324 4     -2835.790          28.900  
G24  22877195.879 6   1250975.228 6     -2803.438          38.900  
G25  21549967.300 6  -1100479.435 6      2364.831          41.000  
G29  23533550.694 6    -96610.758 6      2389.411          39.200  
> 2020 06 10 20 10 54.4432857  0  8                     
G02  20915112.215 6    347146.518 6      -877.279          37.800  
G05  23424488.111 5   -505254.065 5      3344.785          31.100  
G06  22148105.232 6   1155345.405 6     -2707.215          37.000  
G12  20186398.593 4   -311698.994 4       776.567          24.200  
G19  23796044.288 4    152467.500 4     -2834.621          28.900  
G24  22877730.523 6   1253781.516 6     -2803.016          38.900  
G25  21549516.526 6  -1102842.158 6      2366.803          41.000  
G29  23533098.721 6    -98997.974 6      2391.166          39.400  
> 2020 06 10 20 10 55.4432857  0  8                     
G02  20915273.227 6    348025.450 6      -882.435          37.900  
G05  23423851.074 5   -508596.582 5      3338.842          32.000  
G06  22148616.701 6   1158054.181 6     -2711.773          37.500  
G12  20186247.521 3   -312474.94013       771.898          22.900  
G19  23796575.243 4    155303.585 4     -2839.127          29.200  
G24  22878268.673 6   1256586.465 6     -2808.621          38.600  
G25  21549067.160 6  -1105207.929 6      2362.720          40.900  
G29  23532640.961 6   -101387.873 6      2386.838          39.000  
> 2020 06 10 20 10 56.4432857  0  8                     
G02  20915442.426 6    348901.044 6      -865.513          37.500  
G05  23423215.331 4   -511941.950 4      3355.314          28.800  
G06  22149133.959 6   1160758.854 6     -2694.542          36.900  
G12  20186118.426 4              24       789.000          23.500  
G19  23797107.191 4    158135.54814     -2821.452          28.500  
G24  22878800.022 6   1259388.597 6     -2792.118          37.900  
G25  21548616.988 6  -1107577.688 6      2380.058          41.100  
G29  23532184.493 6   -103781.565 6      2404.002          39.100  
> 2020 06 10 20 10 57.4432857  0  8                     
G02  20915610.500 6    349772.419 6      -883.387          37.000  
G05  23422586.257 4   -515291.857 4      3338.581          29.100  
G06  22149648.593 6   1163459.023 6     -2711.902          37.300  
G12  20185988.207 4              24       767.950          24.000  
G19  23797642.211 4              24     -2838.800          27.000  
G24  22879329.945 6   1262185.989 6     -2808.642          38.900  
G25  21548164.792 7  -1109952.422 7      2363.280          41.600  
G29  23531729.298 6   -106180.463 6      2387.897          39.600  
> 2020 06 10 20 10 58.4432857  0  8                     
G02  20915780.159 6    350661.464 6      -888.792          36.400  
G05  23421945.577 4   -518625.78114      3333.265          28.000  
G06  22150165.712 6   1166176.344 6     -2717.144          36.900  
G12  20185831.992 3              23       767.800          20.300  
G19  23798209.095 4    163796.36724     -2844.203          24.900  
G24  22879865.951 6   1264999.534 6     -2813.160          39.100  
G25  21547716.879 7  -1112310.488 7      2358.362          41.500  
G29  23531278.687 6   -108563.743 6      2383.289          39.000  
> 2020 06 10 20 10 59.4432857  0  8                     
G02  20915941.431 6    351547.604 6      -885.623          37.200  
G05  23421302.505 4   -521961.882 4      3336.557          28.900  
G06  22150681.038 6   1168891.004 6     -2713.925          37.000  
G12  20185691.672 4   -315573.78124       769.415          24.200  
G19  23798727.719 4    166636.94314     -2839.259          26.800  
G24  22880401.364 6   1267810.374 6     -2810.551          39.000  
G25  21547266.873 6  -1114671.388 6      2361.384          41.300  
G29  23530822.087 6   -110949.590 6      2386.167          38.800  
> 2020 06 10 20 11 00.4432857  0  8                     
G02  20916114.907 6    352431.820 6      -876.973          37.000  
G05  23420670.440 5   -525299.061 5      3344.654          31.100  
G06  22151198.976 6   1171603.528 6     -2705.443          37.200  
G12  20185529.681 4              24       782.800          24.000  
G19  23799273.538 4    169474.94314     -2831.192          26.500  
G24  22880934.291 6   1270619.946 6     -2802.471          37.900  
G25  21546818.880 6  -1117034.063 6      2369.950          40.500  
G29  23530365.999 6   -113336.827 6      2394.423          38.200  
> 2020 06 10 20 11 01.4432858  0  8                     
G02  20916314.779 6    353306.526 6      -873.202          37.700  
G05  23420065.369 5   -528645.586 5      3347.669          31.500  
G06  22151743.610 6   1174306.797 6     -2701.774          37.700  
G12  20185408.176 4   -317120.44124       781.336          26.900  
G19  23799845.753 4    172304.221 4     -2827.946          26.000  
G24  22881496.013 6   1273420.110 6     -2798.889          37.700  
G25  21546396.383 6  -1119406.625 6      2374.146          41.100  
G29  23529942.303 6   -115733.807 6      2398.445          38.500  
> 2020 06 10 20 11 02.4432858  0  8                     
G02  20916479.704 6    354180.347 6      -877.502          36.900  
G05  23419428.049 5   -531992.449 5      3343.126          30.300  
G06  22152260.790 6   1177008.859 6     -2705.446          37.800  
G12  20185254.720 4   -317902.14914       778.206          25.900  
G19  23800380.021 5    175132.07615     -2830.985          31.000  
G24  22882032.680 6   1276219.879 6     -2803.599          38.100  
G25  21545946.433 6  -1121780.327 6      2370.092          40.800  
G29  23529484.858 6   -118131.594 6      2394.063          38.600  
> 2020 06 10 20 11 03.4432858  0  8                     
G02  20916648.851 6    355064.815 6      -888.534          37.100  
G05  23418794.352 5   -535329.386 5      3333.191          34.200  
G06  22152774.699 6   1179720.730 6     -2715.738          38.900  
G12  20185124.675 4   -318673.53514       766.674          26.700  
G19  23800923.309 5    177969.11525     -2840.675          32.000  
G24  22882565.775 6   1279030.409 6     -2814.524          38.600  
G25  21545494.410 7  -1124143.590 7      2359.253          41.600  
G29  23529032.536 6   -120518.976 6      2383.432          40.200  
> 2020 06 10 20 11 04.4432858  0  8                     
G02  20916818.309 6    355952.550 6      -885.565          35.900  
G05  23418152.872 5   -538663.94615      3337.712          31.700  
G06  22153288.319 6   1182435.734 6     -2712.588          38.400  
G12  20184964.661 4   -319440.87324       769.478          25.900  
G19  23801457.615 5    180808.81915     -2836.208          31.500  
G24  22883101.580 6   1281844.056 6     -2811.094          38.200  
G25  21545045.397 6  -1126503.440 6      2361.941          41.100  
G29  23528578.725 6   -122902.947 6      2386.307          39.500  
> 2020 06 10 20 11 05.4432858  0  8                     
G02  20916985.807 6    356834.499 6      -881.464          36.600  
G05  23417523.820 5   -542006.314 5      3342.879          30.500  
G06  22153806.574 6   1185144.242 6     -2707.780          39.300  
G12  20184824.871 4   -320213.62124       773.166          29.100  
G19  23802000.453 5    183640.76915     -2830.516          33.900  
G24  22883635.124 6   1284651.605 6     -2807.545          39.200  
G25  21544595.622 7  -1128868.484 7      2364.646          41.500  
G29  23528122.654 6   -125292.327 6      2388.651          40.300  
> 2020 06 10 20 11 06.4432858  0  8                     
G02  20917147.934 6    357719.696 6      -888.472          37.300  
G05  23416891.497 5   -545345.517 5      3336.388          35.000  
G06  22154320.657 6   1187855.572 6     -2713.760          38.900  
G12  20184677.013 4   -320983.16814       766.242          28.700  
G19  23802538.220 5    186474.605 5     -2835.719          30.900  
G24  22884170.493 6   1287464.596 6     -2817.999          38.700  
G25  21544146.472 7  -1131227.434 7      2354.057          41.900  
G29  23527669.607 6   -127674.130 6      2375.740          37.700  
> 2020 06 10 20 11 07.4432858  0  8                     
G02  20917315.524 6    358603.390 6      -882.500          36.300  
G05  23416255.943 6   -548687.51116      3343.741          35.700  
G06  22154838.105 6   1190563.498 6     -2705.660          36.700  
G12  20184532.219 4   -321751.11114       769.946          23.500  
G19  23803073.655 5    189303.17215     -2825.727          31.600  
G24  22884704.129 6   1290279.647 6     -2815.298          38.800  
G25  21543695.590 6  -1133584.620 6      2357.000          41.000  
G29  23527216.027 5   -130051.844 5      2376.515          31.800  
> 2020 06 10 20 11 08.4432858  0  8                     
G02  20917491.263 6    359491.061 6      -887.164          36.200  
G05  23415620.144 5              25      3344.050          31.400  
G06  22155351.710 6   1193273.225 6     -2708.231          36.900  
G12  20184388.379 4   -322517.80714       764.018          28.500  
G19  23803611.843 5    192131.92625     -2826.182          32.900  
G24  22885247.413 5   1293102.43415     -2825.377          32.200  
G25  21543250.758 6  -1135934.993 6      2349.571          40.300  
G29  23526769.397 5   -132421.253 5      2367.748          31.100  
> 2020 06 10 20 11 09.4432858  0  8                     
G02  20917661.390 5    360376.56915      -890.295          30.100  
G05  23414979.932 6   -555360.73126      3341.234          36.500  
G06  22155870.496 4   1195978.49214     -2711.699          28.200  
G12                                                                
G19  23804149.516 4    194953.94314     -2825.522          27.100  
G24  22885779.090 6   1295925.95416     -2826.245          36.700  
G25  21542798.217 5              25      2347.500          34.700  
G29  23526316.556 4   -134792.06414      2366.786          26.300  
> 2020 06 10 20 11 10.4432858  0  8                     
G02  20917824.227 5    361268.50025      -892.271          34.000  
G05  23414346.221 6   -558700.41726      3338.060          35.700  
G06  22156379.293 5   1198689.82915     -2709.342          31.400  
G12  20184107.069 4   -324046.62724       754.704          26.500  
G19  23804688.292 5    197779.73215     -2823.302          34.100  
G24  22886314.869 6   1298757.223 6     -2835.789          36.900  
G25  21542360.269 6  -1140618.689 6      2337.951          37.800  
G29  23525866.017 6   -137150.42516      2352.045          37.800  
> 2020 06 10 20 11 11.4432858  0  8                     
G02  20917992.653 5    362157.85925      -884.688          34.700  
G05  23413711.203 5   -562041.58825      3346.042          34.900  
G06  22156897.277 5   1201394.03515     -2698.211          30.900  
G12  20183954.117 4   -324803.27614       761.331          24.900  
G19  23805225.463 6    200596.519 6     -2809.683          37.100  
G24  22886858.935 6   1301593.188 6     -2833.760          38.300  
G25  21541910.223 6  -1142958.091 6      2342.642          37.000  
G29  23525418.069 6   -139501.28226      2352.500          38.100  
> 2020 06 10 20 11 12.4432858  0  8                     
G02  20918157.704 5    363040.73515      -883.998          32.500  
G05  23413073.110 5   -565388.93515      3347.023          33.000  
G06  22157409.787 4   1204089.13814     -2695.286          28.800  
G12  20183796.292 3   -325566.06613       761.155          23.400  
G19  23805758.659 5    203403.020 5     -2805.137          34.200  
G24  22887396.628 6   1304427.277 6     -2836.730          37.700  
G25  21541470.294 5  -1145300.678 5      2341.279          35.000  
G29  23524972.144 5   -141853.12615      2349.577          35.400  
> 2020 06 10 20 11 13.4432859  0  8                     
G02  20918361.934 5    363926.17125      -886.321          35.000  
G05  23412468.200 5   -568735.113 5      3345.895          35.400  
G06  22157948.286 5   1206784.08515     -2695.300          30.100  
G12  20183706.425 4   -326326.42214       758.581          23.800  
G19  23806324.439 6    206207.723 6     -2803.718          36.300  
G24  22887967.504 6   1307266.662 6     -2841.322          39.900  
G25  21541052.754 6  -1147639.453 6      2337.300          36.800  
G29  23524553.405 6   -144199.46216      2343.753          38.400  
> 2020 06 10 20 11 14.4432859  0  8                     
G02  20918535.847 6    364816.34726      -890.250          35.900  
G05  23411825.479 5   -572078.27115      3341.686          34.100  
G06  22158460.066 4   1209482.399 4     -2698.107          28.400  
G12  20183549.068 4   -327079.60814       752.480          25.700  
G19  23806856.005 5    209013.17115     -2807.012          34.200  
G24  22888507.165 6   1310112.70516     -2848.458          36.200  
G25  21540607.296 6  -1149972.127 6      2331.482          36.700  
G29  23524111.245 6   -146538.164 6      2336.124          36.100  
> 2020 06 10 20 11 15.4432859  0  8                     
G02  20918704.563 5    365707.10015      -892.740          31.200  
G05  23411197.046 5   -575419.85715      3339.301          30.500  
G06  22158987.033 4                     -2699.600          26.700  
G12  20183404.801 3              23       752.350          21.500  
G19  23807391.367 6    211820.67416     -2805.444          35.600  
G24                                                                
G25  21540163.536 5  -1152302.20415      2327.485          34.000  
G29  23523665.686 3                      2333.200          21.900  
> 2020 06 10 20 11 16.4432859  0  8                     
G02  20918874.354 5              25      -889.150          31.700  
G05  23410565.192 5              25      3346.000          31.600  
G06  22159491.692 4   1214880.825 4     -2690.927          29.100  
G12  20183270.002 3   -328578.61423       747.347          22.600  
G19  23807921.508 5    214622.10125     -2796.276          34.300  
G24  22889593.653 5   1315815.923 5     -2851.646          35.100  
G25  21539710.958 4  -1154627.75614      2319.222          26.600  
G29                                                                
> 2020 06 10 20 11 17.4432859  0  8                     
G02  20919043.762 5    367499.02325      -895.699          31.100  
G05  23409926.959 5   -582090.48025      3339.818          32.800  
G06  22160004.063 4                     -2695.300          26.500  
G12  20183124.029 3   -329330.82213       754.918          23.400  
G19  23808451.567 5    217416.27115     -2797.011          30.000  
G24  22890140.500 6   1318670.389 6     -2862.321          36.500  
G25  21539284.079 5              25      2323.900          30.600  
G29  23522781.132 6   -153535.610 6      2321.748          36.200  
> 2020 06 10 20 11 18.4432859  0  7                     
G02  20919208.657 5    368393.98715      -891.489          33.800  
G05  23409298.903 4   -585432.14514      3346.091          24.100  
G12  20182966.347 4   -330081.66914       750.086          24.100  
G19                                                                
G24  22890679.236 5   1321536.095 5     -2866.788          33.300  
G25  21538835.598 5  -1159261.33425      2324.161          32.300  
G29  23522341.346 6   -155852.786 6      2316.796          37.300  
> 2020 06 10 20 11 19.4432859  0  8                     
G02  20919379.115 6    369286.65616      -893.236          35.700  
G05  23408651.827 4              24      3334.650          25.700  
G06  22161024.741 4                     -2689.250          27.300  
G12  20182835.813 4   -330833.05914       747.877          24.500  
G19  23809512.717 4    223001.04624     -2789.618          26.800  
G24  22891231.630 5   1324411.18915     -2877.872          33.900  
G25  21538395.379 5  -1161587.73315      2324.149          31.400  
G29  23521900.826 5   -158164.55915      2309.122          29.500  
> 2020 06 10 20 11 20.4432859  0  8                     
G02  20919547.790 5    370177.065 5      -885.244          35.000  
G05  23408007.765 4   -592113.81724      3336.069          25.000  
G06  22161539.976 5   1225632.708 5     -2678.374          32.100  
G12  20182695.102 4   -331581.01914       753.395          25.600  
G19  23810040.843 4    225786.97114     -2780.371          27.100  
G24  22891777.443 6   1327285.672 6     -2871.468          36.000  
G25  21537950.378 5  -1163910.377 5      2328.335          34.200  
G29  23521455.227 5   -160476.379 5      2316.657          34.900  
> 2020 06 10 20 11 21.4432859  0  8                     
G02  20919713.821 6    371053.976 6      -876.501          36.700  
G05  23407382.344 5   -595457.76515      3344.126          29.900  
G06  22162040.876 6   1228301.361 6     -2666.914          35.800  
G12  20182544.553 4   -332342.92624       762.524          27.700  
G19  23810578.017 4    228557.58914     -2768.814          27.700  
G24  22892324.511 6   1330151.086 6     -2866.851          37.900  
G25  21537506.632 5  -1166247.843 5      2338.707          35.300  
G29  23521013.878 6   -162800.727 6      2324.655          36.100  
> 2020 06 10 20 11 22.4432859  0  8                     
G02  20919877.979 6    371934.151 6      -881.672          36.100  
G05  23406749.054 5   -598796.036 5      3334.733          32.300  
G06  22162552.793 6   1230970.736 6     -2669.992          35.900  
G12  20182406.820 4   -333101.82924       757.736          28.300  
G19  23811102.826 4    231328.79914     -2771.528          25.000  
G24  22892868.806 6   1333023.565 6     -2876.099          35.900  
G25  21537064.010 6  -1168583.669 6      2334.982          35.900  
G29  23520575.754 6   -165121.634 6      2318.877          36.500  
> 2020 06 10 20 11 23.4432859  0  7                     
G02  20920048.965 6    372819.282 6      -883.226          36.000  
G05  23406111.799 5   -602125.989 5      3330.767          33.000  
G06  22163061.345 6   1233642.784 6     -2668.720          36.300  
G12  20182260.026 4   -333856.14014       756.903          26.400  
G24  22893419.929 6   1335904.635 6     -2880.891          36.100  
G25  21536618.922 6  -1170916.160 6      2335.064          36.000  
G29  23520137.561 5   -167437.212 5      2317.534          34.600  
> 2020 06 10 20 11 24.4432859  0  8                     
G02  20920212.890 5    373699.327 5      -878.016          35.300  
G05  23405473.480 5   -605457.899 5      3332.426          32.100  
G06  22163568.233 5   1236306.774 5     -2660.517          35.000  
G12  20182110.068 4   -334616.27814       761.657          26.000  
G19  23812159.937 4              24     -2759.300          24.500  
G24  22893965.489 6   1338785.475 6     -2881.447          35.900  
G25  21536177.866 6  -1173254.812 6      2340.633          37.200  
G29  23519688.111 5   -169756.791 5      2319.636          30.500  
> 2020 06 10 20 11 25.4432859  0  8                     
G02  20920384.567 6    374576.887 6      -876.788          35.500  
G05  23404846.210 5   -608789.660 5      3332.467          33.000  
G06  22164079.275 6   1238965.805 6     -2657.504          35.800  
G12  20181967.562 4   -335378.47514       762.459          25.800  
G19  23812681.171 5    239625.17525     -2758.438          29.800  
G24  22894513.106 6   1341668.384 6     -2883.195          36.000  
G25  21535729.872 6  -1175595.785 6      2341.687          37.500  
G29  23519249.410 5   -172075.616 5      2319.410          31.300  
> 2020 06 10 20 11 26.4432859  0  8                     
G02  20920550.002 6    375454.720 6      -877.566          36.100  
G05  23404208.501 5   -612120.219 5      3330.271          32.700  
G06  22164587.073 6   1241623.439 6     -2656.447          36.700  
G12  20181831.706 4   -336139.65914       761.740          25.300  
G19  23813205.758 5    242383.61025     -2757.094          32.800  
G24  22895060.177 6   1344554.205 6     -2887.050          36.500  
G25  21535281.632 6  -1177936.357 6      2340.617          38.200  
G29  23518814.061 5   -174392.607 5      2316.238          32.000  
> 2020 06 10 20 11 27.4432859  0  8                     
G02  20920717.007 6    376333.260 6      -880.735          35.700  
G05  23403574.460 5   -615449.063 5      3325.642          34.700  
G06  22165086.547 6   1244279.843 6     -2657.632          37.100  
G12  20181672.237 4   -336900.20514       758.103          23.800  
G19  23813730.115 5    245140.26125     -2757.629          34.000  
G24  22895611.216 5   1347443.31115     -2893.674          34.300  
G25  21534837.360 6  -1180275.868 6      2337.138          38.200  
G29  23518369.189 5   -176706.865 5      2310.901          31.800  
> 2020 06 10 20 11 28.4432859  0  8                     
G02  20920883.255 5    377214.191 5      -876.749          34.500  
G05  23402942.362 5   -618773.345 5      3327.423          34.800  
G06  22165598.757 5   1246936.663 5     -2651.528          34.200  
G12  20181525.202 3              23       762.000          22.000  
G19  23814253.117 5    247897.03425     -2751.317          33.100  
G24  22896163.897 5   1350339.199 5     -2893.517          34.900  
G25  21534391.732 6  -1182612.887 6      2341.470          37.100  
G29  23517929.258 5   -179016.441 5      2313.128          29.700  
> 2020 06 10 20 11 29.4432859  0  8                     
G02  20921051.013 5    378082.833 5      -868.464          34.500  
G05  23402307.874 5   -622107.564 5      3333.873          33.700  
G06  22166090.290 5   1249579.383 5     -2642.277          33.200  
G12  20181394.067 4              24       773.250          25.200  
G19  23814781.825 5    250639.57425     -2741.867          32.500  
G24  22896717.787 6   1353226.085 6     -2886.880          36.300  
G25  21533947.014 6  -1184962.841 6      2350.729          36.600  
G29  23517488.137 5   -181337.256 5      2321.448          30.500  
> 2020 06 10 20 11 30.4432860  0  8                     
G02  20921242.977 5    378957.940 5      -878.221          33.700  
G05  23401706.888 5   -625434.908 5      3324.222          33.700  
G06  22166631.513 5   1252228.290 5     -2652.011          34.700  
G12  20181272.748 3   -339176.68423       757.216          22.900  
G19  23815333.540 5    253388.37515     -2751.814          33.600  
G24  22897295.884 5   1356119.440 5     -2895.577          34.300  
G25  21533530.100 6  -1187307.536 6      2342.151          36.600  
G29  23517071.522 5   -183652.999 5      2313.614          30.200  
> 2020 06 10 20 11 31.4432860  0  8                     
G02  20921411.536 5    379832.587 5      -871.254          34.800  
G05  23401072.602 5   -628762.514 5      3331.041          35.000  
G06  22167136.139 5   1254876.02515     -2645.040          34.100  
G12                                                                
G19  23815859.451 5    256136.29415     -2744.581          33.700  
G24  22897844.880 6   1359011.548 6     -2888.206          37.400  
G25  21533081.985 6  -1189653.576 6      2349.809          37.200  
G29  23516639.297 5   -185970.41915      2321.474          30.400  
> 2020 06 10 20 11 32.4432860  0  8                     
G02  20921581.784 5    380701.818 5      -866.415          32.800  
G05  23400435.510 5   -632095.84515      3335.266          32.700  
G06  22167627.465 4   1257519.01914     -2639.941          29.000  
G12                                                                
G19  23816380.157 5    258879.01615     -2739.800          30.500  
G24  22898392.267 5   1361897.788 5     -2883.724          33.500  
G25  21532637.060 5  -1192005.764 5      2355.319          34.400  
G29  23516202.166 4   -188294.01914      2326.218          26.700  
> 2020 06 10 20 11 33.4432860  0  8                     
G02  20921742.496 5              25      -857.350          33.000  
G05  23399805.069 5   -635433.60215      3341.637          34.800  
G06  22168127.541 4              24     -2631.200          28.900  
G12  20180839.912 3              23       783.800          22.000  
G19  23816886.229 5    261615.68815     -2732.340          31.300  
G24  22898939.111 5   1364777.67715     -2876.527          34.900  
G25  21532190.691 6  -1194365.24816      2363.481          35.600  
G29  23515754.898 4   -190622.43214      2331.364          28.700  
> 2020 06 10 20 11 34.4432860  0  8                     
G02  20921912.793 5    382430.860 5      -857.206          34.400  
G05  23399169.524 5   -638774.120 5      3343.221          35.000  
G06  22168633.307 4   1262792.473 4     -2629.792          29.300  
G12  20180688.832 4   -342247.32024       783.353          23.600  
G19  23817417.777 5    264348.322 5     -2729.228          32.300  
G24  22899490.445 6   1367655.662 6     -2875.475          36.600  
G25  21531733.823 6  -1196727.809 6      2365.627          36.900  
G29  23515309.422 4   -192955.458 4      2336.665          29.100  
> 2020 06 10 20 11 35.4432860  0  8                     
G02  20922071.998 6    383283.639 6      -857.914          35.900  
G05  23398533.679 6   -642121.254 6      3341.930          35.600  
G06  22169134.574 4   1265417.739 4     -2630.698          29.000  
G12  20180544.047 4   -343034.82214       782.537          23.700  
G19  23817935.233 5    267073.096 5     -2730.091          32.000  
G24  22900038.780 6   1370527.227 6     -2876.488          37.500  
G25  21531285.348 6  -1199097.940 6      2365.214          37.200  
G29  23514861.847 5   -195296.382 5      2336.039          29.600  
> 2020 06 10 20 11 36.4432861  0  8                     
G02  20922265.030 6    384149.551 6      -868.186          35.700  
G05  23397927.765 5   -645455.612 5      3332.662          35.400  
G06  22169674.467 5   1268056.933 5     -2641.281          29.800  
G12  20180433.989 4   -343809.42314       771.761          23.900  
G19  23818485.918 5    269811.743 5     -2740.534          33.100  
G24  22900614.647 6   1373411.475 6     -2885.266          35.900  
G25  21530867.404 6  -1201454.889 6      2355.274          37.300  
G29  23514445.101 5   -197625.148 5      2326.985          30.000  
> 2020 06 10 20 11 37.4432861  0  8                     
G02  20922432.906 5    385019.874 5      -873.069          35.300  
G05  23397291.597 5   -648786.864 5      3329.101          35.100  
G06  22170163.720 5   1270700.344 5     -2646.062          30.400  
G12  20180291.280 4   -344579.70314       768.169          23.500  
G19  23819005.151 5    272554.017 5     -2744.827          33.000  
G24  22901162.960 6   1376297.56716     -2888.951          35.800  
G25  21530418.906 6  -1203808.131 6      2350.261          37.200  
G29  23514007.996 5   -199950.530 5      2322.692          29.800  
> 2020 06 10 20 11 38.4432861  0  8                     
G02  20922594.534 5    385894.784 5      -872.346          34.300  
G05  23396661.173 5   -652114.743 5      3331.309          34.800  
G06  22170672.507 4   1273348.10814     -2645.672          29.300  
G12  20180136.327 3              23       769.950          21.600  
G19  23819532.225 5    275300.05815     -2743.393          32.600  
G24  22901712.819 5   1379187.98625     -2887.314          34.900  
G25  21529973.454 6  -1206156.321 6      2350.444          36.900  
G29  23513575.135 4   -202271.34214      2323.315          29.400  
> 2020 06 10 20 11 39.4432861  0  8                     
G02  20922763.358 5    386766.102 5      -867.627          34.000  
G05  23396024.755 5   -655447.559 5      3337.446          33.200  
G06  22171186.093 5   1275992.54615     -2640.570          29.700  
G12  20179974.181 3              23       771.300          20.700  
G19  23820049.709 5    278041.984 5     -2737.326          33.600  
G24  22902259.682 5   1382074.83815     -2882.911          33.900  
G25  21529526.205 6  -1208507.485 6      2354.512          36.000  
G29  23513122.490 4              24      2326.350          27.300  
> 2020 06 10 20 11 40.4432861  0  8                     
G02  20922925.927 5    387625.046 5      -859.207          33.900  
G05  23395384.780 5   -658794.000 5      3346.840          34.400  
G06  22171683.530 5   1278624.704 5     -2632.711          29.600  
G12  20179833.959 3              23       774.950          21.000  
G19  23820571.729 5    280770.872 5     -2728.930          33.600  
G24  22902804.786 5   1384948.38025     -2873.493          34.600  
G25  21529075.698 6  -1210870.295 6      2362.164          36.300  
G29  23512681.577 4   -206927.67624      2335.378          28.700  
> 2020 06 10 20 11 41.4432861  0  8                     
G02  20923090.244 5    388487.298 5      -862.066          34.900  
G05  23394752.847 6   -662138.781 6      3345.512          35.700  
G06  22172184.814 5   1281260.210 5     -2635.288          31.100  
G12  20179702.980 3   -347647.01823       778.578          22.800  
G19  23821097.895 5    283502.438 5     -2730.995          34.000  
G24  22903356.134 5   1387824.59215     -2876.272          34.000  
G25  21528624.841 6  -1213228.969 6      2358.282          37.700  
G29  23512238.813 5   -209259.81725      2331.740          31.100  
> 2020 06 10 20 11 42.4432862  0  8                     
G02  20923282.657 5    389354.135 5      -869.363          34.300  
G05  23394140.917 5   -665480.057 5      3339.146          34.400  
G06  22172704.600 4   1283900.565 4     -2642.243          29.400  
G12  20179573.116 4   -348426.26614       773.778          23.600  
G19  23821638.667 5    286237.947 5     -2737.022          33.000  
G24  22903934.980 5   1390706.512 5     -2883.680          35.200  
G25  21528209.275 6  -1215581.955 6      2349.949          37.600  
G29  23511823.247 5   -211585.42115      2322.980          29.500  
> 2020 06 10 20 11 43.4432862  0  8                     
G02  20923451.777 5    390226.39715      -874.254          34.400  
G05  23393509.892 5   -668817.727 5      3337.808          34.300  
G06  22173214.584 4              24     -2646.300          29.400  
G12  20179431.652 4   -349192.22414       764.554          24.800  
G19  23822164.240 5    288976.813 5     -2739.682          33.300  
G24  22904484.837 5   1393592.52115     -2888.143          35.400  
G25  21527763.521 6  -1217929.75716      2345.738          36.100  
G29  23511384.389 5   -213906.40415      2318.524          29.700  
> 2020 06 10 20 11 44.4432862  0  8                     
G02  20923616.397 5    391096.655 5      -864.201          33.900  
G05  23392879.462 5   -672158.916 5      3348.269          33.200  
G06  22173718.869 4              24     -2634.400          29.400  
G12  20179281.490 4   -349959.33814       772.231          23.600  
G19  23822686.513 5    291712.975 5     -2729.304          33.100  
G24  22905033.491 5   1396475.927 5     -2877.109          35.000  
G25  21527318.363 6  -1220278.039 6      2353.809          36.600  
G29  23510931.736 5   -216227.82415      2328.092          29.600  
> 2020 06 10 20 11 45.4432862  0  8                     
G02  20923775.947 5    391955.474 5      -861.101          34.300  
G05  23392237.067 5   -675512.258 5      3351.877          35.300  
G06  22174224.979 5   1291847.894 5     -2633.853          30.500  
G12                                                                
G19  23823199.818 5    294437.419 5     -2726.306          34.200  
G24  22905576.775 6   1399347.558 6     -2873.244          35.900  
G25  21526868.435 6  -1222636.820 6      2356.611          37.000  
G29  23510496.198 5   -218560.44825      2330.631          29.700  
> 2020 06 10 20 11 46.4432862  0  8                     
G02  20923937.930 5    392821.395 5      -869.438          33.700  
G05  23391595.606 6   -678860.403 6      3345.110          35.500  
G06  22174728.126 5   1294486.463 5     -2641.940          32.400  
G12  20178998.341 3              23       767.450          21.600  
G19  23823722.151 5    297167.866 5     -2733.520          34.300  
G24  22906125.490 6   1402224.758 6     -2880.273          36.300  
G25  21526419.441 6  -1224988.756 6      2348.548          36.600  
G29  23510047.504 4   -220887.15224      2323.655          29.100  
> 2020 06 10 20 11 47.4432863  0  8                     
G02  20924145.454 5    393693.595 5      -870.833          34.300  
G05  23390997.288 5   -682202.58715      3343.160          33.500  
G06  22175256.129 5   1297131.351 5     -2643.855          32.400  
G12  20178878.192 3              23       765.050          22.300  
G19  23824266.343 5    299904.335 5     -2735.562          35.100  
G24  22906706.556 6   1405107.737 6     -2882.010          35.600  
G25  21526002.797 6  -1227334.452 6      2346.939          37.500  
G29  23509650.646 5   -223207.95615      2321.728          30.200  
> 2020 06 10 20 11 48.4432863  0  8                     
G02  20924302.105 5    394563.956 5      -870.131          34.200  
G05  23390362.487 5   -685545.861 5      3343.139          35.200  
G06  22175768.033 5   1299775.264 5     -2643.017          30.300  
G12  20178714.365 3              23       768.700          21.700  
G19  23824794.136 5    302639.508 5     -2734.765          34.300  
G24  22907251.738 6   1407989.976 6     -2881.723          35.700  
G25  21525557.465 6  -1229681.381 6      2347.752          37.100  
G29  23509199.618 5   -225530.07115      2322.259          30.300  
> 2020 06 10 20 11 49.4432863  0  8                     
G02  20924479.083 5    395438.607 5      -875.042          34.200  
G05  23389722.830 5   -688884.72915      3338.701          35.400  
G06  22176269.686 5   1302421.88715     -2647.119          29.700  
G12  20178580.458 4   -353814.54924       763.825          23.700  
G19  23825314.076 5    305378.129 5     -2737.843          33.100  
G24  22907801.957 6   1410876.327 6     -2887.286          35.600  
G25  21525111.174 6  -1232024.949 6      2343.245          37.300  
G29  23508755.725 5   -227848.176 5      2317.936          30.500  
> 2020 06 10 20 11 50.4432863  0  8                     
G02  20924636.780 5    396313.825 5      -872.089          34.700  
G05  23389085.178 5   -692222.62625      3341.420          34.500  
G06  22176765.250 4   1305068.65424     -2643.642          28.900  
G12  20178434.466 4   -354576.06114       760.420          23.700  
G19  23825832.125 5    308115.961 5     -2734.179          32.800  
G24  22908351.183 5   1413764.33715     -2884.829          35.100  
G25  21524665.989 6  -1234368.029 6      2346.275          37.400  
G29  23508322.232 5   -230165.142 5      2320.581          29.600  
> 2020 06 10 20 11 51.4432863  0  8                     
G02  20924802.955 5    397178.131 5      -863.952          34.900  
G05  23388447.610 5   -695571.44025      3349.156          33.800  
G06  22177271.689 5   1307704.81625     -2636.016          30.000  
G12  20178302.347 4   -355342.91014       771.106          25.400  
G19  23826352.654 5    310843.129 5     -2727.098          33.400  
G24  22908898.994 5   1416640.92725     -2875.614          35.300  
G25  21524214.891 6  -1236722.355 6      2355.014          37.600  
G29  23507878.329 5   -232495.69215      2331.761          29.800  
> 2020 06 10 20 11 52.4432863  0  8                     
G02  20924970.785 5    398046.788 5      -868.577          32.300  
G05  23387804.501 5   -698914.72715      3342.160          30.700  
G06  22177771.989 4   1310345.95214     -2641.247          27.300  
G12  20178135.608 3              23       768.200          22.300  
G19  23826871.841 5    313575.201 5     -2732.023          31.100  
G24  22909448.460 5   1419520.87615     -2879.323          32.900  
G25  21523765.448 5  -1239072.993 5      2351.118          34.900  
G29  23507431.585 4   -234820.57714      2325.257          28.200  
> 2020 06 10 20 11 53.4432864  0  8                     
G02  20925163.194 5    398909.27615      -860.188          34.300  
G05  23387207.557 5   -702265.220 5      3352.867          32.700  
G06  22178303.763 5              25     -2632.600          30.100  
G12  20178034.821 3              23       780.850          21.500  
G19  23827422.502 5    316300.28715     -2723.059          34.000  
G24  22910024.004 5   1422394.45815     -2871.242          35.400  
G25  21523352.876 6  -1241430.703 6      2360.592          36.500  
G29  23507021.711 4   -237154.04014      2335.991          28.700  
> 2020 06 10 20 11 54.4432864  0  8                     
G02  20925329.596 5    399774.435 5      -867.561          34.900  
G05  23386565.418 5   -705612.308 5      3344.660          33.600  
G06  22178809.829 5   1315628.206 5     -2639.631          31.400  
G12  20177886.740 3              23       773.000          22.300  
G19  23827944.757 5    319028.910 5     -2730.762          34.800  
G24  22910571.441 6   1425270.153 6     -2877.233          35.800  
G25  21522900.806 6  -1243787.134 6      2355.035          37.600  
G29  23506585.230 5   -239486.123 5      2330.840          30.300  
> 2020 06 10 20 11 55.4432864  0  8                     
G02  20925497.502 5    400641.326 5      -868.646          34.000  
G05  23385932.578 5   -708956.854 5      3341.996          34.400  
G06  22179311.105 5   1318266.69115     -2640.631          31.500  
G12  20177705.088 3              23       774.450          21.400  
G19  23828457.425 5    321759.372 5     -2732.316          34.600  
G24  22911120.384 5   1428146.02015     -2878.585          35.200  
G25  21522455.637 6  -1246143.772 6      2355.843          37.600  
G29  23506129.568 5   -241818.931 5      2332.008          30.500  
> 2020 06 10 20 11 56.4432864  0  8                     
G02  20925657.767 5    401516.060 5      -877.412          34.600  
G05  23385295.995 5   -712291.993 5      3332.005          33.500  
G06  22179808.336 5   1320913.268 5     -2649.066          31.300  
G12  20177581.449 3   -359201.46623       763.484          22.500  
G19  23828984.935 5    324497.902 5     -2741.142          34.200  
G24  22911669.180 6   1431030.779 6     -2886.816          36.100  
G25  21522004.025 6  -1248494.444 6      2348.886          37.900  
G29  23505685.451 5   -244145.32015      2324.586          30.300  
> 2020 06 10 20 11 57.4432864  0  8                     
G02  20925828.396 5    402391.716 5      -875.670          33.800  
G05  23384666.778 5   -715625.126 5      3332.831          34.300  
G06  22180317.432 5   1323560.490 5     -2646.950          30.400  
G12  20177437.896 3   -359965.96513       763.770          22.700  
G19  23829504.823 5    327237.328 5     -2739.294          33.500  
G24  22912215.449 5   1433915.780 5     -2885.054          34.500  
G25  21521558.281 6  -1250845.873 6      2352.058          37.200  
G29  23505251.999 5   -246473.185 5      2328.510          30.300  
> 2020 06 10 20 11 58.4432865  0  8                     
G02  20926025.860 5    403270.774 5      -880.628          34.300  
G05  23384057.800 5   -718953.980 5      3327.048          33.900  
G06  22180851.862 4   1326210.781 4     -2651.582          29.400  
G12  20177331.071 4   -360727.76814       760.850          23.500  
G19  23830056.042 5    329979.939 5     -2744.000          33.400  
G24  22912798.446 5   1436804.400 5     -2890.317          35.200  
G25  21521140.271 6  -1253194.988 6      2347.906          37.000  
G29  23504840.884 5   -248798.690 5      2324.296          30.300  
> 2020 06 10 20 11 59.4432865  0  8                     
G02  20926190.301 5    404152.223 5      -884.300          34.800  
G05  23383428.390 5   -722280.075 5      3323.536          35.000  
G06  22181357.467 5   1328863.355 5     -2655.600          30.600  
G12  20177170.836 3   -361487.50813       756.753          23.100  
G19  23830573.338 5    332724.807 5     -2747.654          34.300  
G24  22913349.020 6   1439695.210 6     -2893.228          36.000  
G25  21520697.033 6  -1255542.301 6      2344.651          37.600  
G29  23504389.551 5   -251122.544 5      2321.334          30.700  
> 2020 06 10 20 12 00.4432864  0  8                     
G02  20926362.320 5    405038.148 5      -885.675          34.600  
G05  23382793.368 5   -725602.403 5      3323.085          35.000  
G06  22181857.159 5   1331521.007 5     -2656.866          30.300  
G12  20177037.067 4   -362242.77314       755.993          23.900  
G19  23831100.312 5    335473.856 5     -2748.393          34.100  
G24  22913894.280 5   1442589.731 5     -2894.023          35.100  
G25  21520250.880 6  -1257885.366 6      2343.262          37.500  
G29  23503947.295 5   -253442.178 5      2320.550          31.500  
> 2020 06 10 20 12 01.4432865  0  8                     
G02  20926532.296 5    405922.902 5      -883.991          34.200  
G05  23382165.597 5   -728926.614 5      3325.595          34.500  
G06  22182365.901 5   1334176.894 5     -2655.034          30.800  
G12  20176895.259 4   -362998.65314       755.553          24.300  
G19  23831630.039 5    338221.101 5     -2745.958          34.000  
G24  22914446.492 6   1445482.783 6     -2892.172          35.900  
G25  21519803.283 6  -1260229.407 6      2344.584          37.800  
G29  23503507.793 5   -255763.343 5      2321.817          30.600  
> 2020 06 10 20 12 02.4432865  0  8                     
G02  20926695.774 5    406804.915 5      -879.183          33.500  
G05  23381525.630 5   -732254.859 5      3331.366          34.400  
G06  22182869.643 5   1336829.662 5     -2650.053          30.000  
G12  20176753.848 3              23       764.650          22.400  
G19  23832143.974 5    340964.394 5     -2740.238          33.400  
G24  22915001.498 5   1448372.640 5     -2887.011          35.400  
G25  21519358.182 6  -1262575.758 6      2348.723          37.300  
G29  23503070.786 5   -258087.174 5      2326.175          29.800  
> 2020 06 10 20 12 03.4432865  0  8                     
G02  20926865.250 5    407687.967 5      -890.083          34.000  
G05  23380893.762 5   -735582.872 5      3321.499          34.000  
G06  22183374.887 5   1339483.527 5     -2660.719          30.600  
G12  20176595.351 4   -364513.53724       751.537          23.600  
G19  23832669.004 5    343708.220 5     -2750.321          33.800  
G24  22915547.814 5   1451263.485 5     -2897.699          35.300  
G25  21518908.887 6  -1264920.359 6      2337.236          37.600  
G29  23502620.592 5   -260409.206 5      2314.749          30.500  
> 2020 06 10 20 12 04.4432865  0  8                     
G02  20927032.673 6    408578.750 6      -891.567          35.600  
G05  23380264.037 5   -738903.962 5      3320.386          34.600  
G06  22183878.377 5   1342145.120 5     -2662.481          30.900  
G12  20176451.590 4   -365262.89414       748.524          28.600  
G19  23833186.885 5    346459.286 5     -2752.003          33.100  
G24  22916103.468 6   1454162.009 6     -2899.651          35.800  
G25  21518467.132 6  -1267256.488 6      2334.991          37.800  
G29  23502182.734 5   -262722.645 5      2311.839          31.100  
> 2020 06 10 20 12 05.4432866  0  8                     
G02  20927239.373 5    409472.348 5      -893.977          35.100  
G05  23379662.496 5   -742222.777 5      3318.616          35.300  
G06  22184418.147 5   1344809.228 5     -2663.923          30.500  
G12  20176349.803 4   -366009.40514       746.428          24.800  
G19  23833744.042 5    349212.290 5     -2752.671          32.500  
G24  22916684.909 6   1457063.603 6     -2902.001          35.800  
G25  21518053.561 6  -1269589.362 6      2332.797          37.800  
G29  23501776.059 5   -265032.714 5      2310.027          30.300  
> 2020 06 10 20 12 06.4432866  0  8                     
G02  20927406.469 5    410363.775 5      -886.056          34.500  
G05  23379028.846 5   -745543.662 5      3325.796          34.500  
G06  22184922.808 5   1347470.52915     -2655.697          30.500  
G12  20176218.905 3   -366756.31913       752.040          22.500  
G19  23834268.490 5    351962.173 5     -2744.479          32.900  
G24  22917232.141 5   1459962.96915     -2893.895          35.200  
G25  21517606.682 6  -1271925.272 6      2341.921          37.900  
G29  23501332.177 5   -267345.968 5      2319.509          30.000  
> 2020 06 10 20 12 07.4432866  0  8                     
G02  20927571.873 5    411251.276 5      -889.745          33.500  
G05  23378398.001 5   -748867.537 5      3321.258          34.100  
G06  22185423.680 4   1350126.79214     -2658.881          29.400  
G12  20176072.825 3              23       755.400          20.500  
G19  23834790.647 5    354708.150 5     -2748.317          33.000  
G24  22917787.575 5   1462859.18115     -2898.502          32.900  
G25  21517161.408 6  -1274266.655 6      2339.958          36.900  
G29  23500885.705 4   -269665.56414      2318.537          28.800  
> 2020 06 10 20 12 08.4432866  0  8                     
G02  20927738.231 5    412141.690 5      -892.223          33.800  
G05  23377763.614 5   -752187.441 5      3317.474          34.600  
G06  22185932.701 5   1352787.03925     -2662.215          30.700  
G12  20175904.315 3   -368267.56423       751.827          23.300  
G19  23835310.760 5    357457.585 5     -2751.662          34.200  
G24  22918336.169 6   1465756.560 6     -2899.088          35.500  
G25  21516716.789 6  -1276606.815 6      2339.199          37.600  
G29  23500450.079 5   -271984.85515      2317.689          29.800  
> 2020 06 10 20 12 09.4432866  0  8                     
G02  20927909.494 5    413037.479 5      -897.466          34.700  
G05  23377135.031 5   -755500.854 5      3311.593          34.000  
G06  22186440.631 5   1355452.71425     -2667.403          30.400  
G12  20175766.492 4   -369014.58614       744.479          25.000  
G19  23835841.175 5    360212.847 5     -2756.857          34.100  
G24  22918886.670 5   1468658.906 5     -2903.746          34.700  
G25  21516270.181 6  -1278943.215 6      2334.990          37.800  
G29  23500008.567 5   -274300.08425      2313.449          31.200  
> 2020 06 10 20 12 10.4432866  0  8                     
G02  20928082.688 5    413935.675 5      -898.594          35.100  
G05  23376505.081 5   -758811.918 5      3310.487          34.800  
G06  22186950.192 5   1358120.74425     -2668.281          29.900  
G12  20175642.292 4   -369757.97714       742.868          26.900  
G19  23836363.028 5    362969.78215     -2757.535          29.700  
G24  22919444.197 5   1471563.627 5     -2905.342          33.500  
G25  21515825.502 6  -1281277.489 6      2333.750          37.700  
G29  23499574.082 5   -276612.84225      2311.998          31.400  
> 2020 06 10 20 12 11.4432866  0  8                     
G02  20928254.772 5    414829.419 5      -887.978          34.400  
G05  23375878.217 5   -762127.361 5      3321.511          35.100  
G06  22187461.641 4   1360784.48814     -2658.148          29.400  
G12  20175488.501 4   -370506.07224       753.900          27.500  
G19  23836886.168 5    365722.07325     -2746.135          33.100  
G24  22919988.323 5   1474464.660 5     -2895.035          35.300  
G25  21515383.011 6  -1283615.770 6      2343.993          37.700  
G29  23499121.997 5   -278929.19025      2322.104          31.600  
> 2020 06 10 20 12 12.4432866  0  8                     
G02  20928423.031 5    415719.35215      -891.650          31.700  
G05  23375242.133 5   -765447.196 5      3318.421          32.100  
G06  22187964.768 4   1363444.57414     -2662.708          27.600  
G12  20175329.087 3   -371258.38413       749.637          22.800  
G19  23837410.580 5    368470.77615     -2749.633          32.100  
G24  22920545.713 5   1477361.241 5     -2897.940          32.800  
G25  21514933.997 5  -1285957.848 5      2340.542          34.700  
G29  23498694.868 4   -281249.60814      2319.208          29.000  
> 2020 06 10 20 12 13.4432866  0  8                     
G02  20928598.070 5    416605.756 5      -882.942          33.600  
G05  23374609.231 5   -768770.761 5      3326.062          34.300  
G06  22188468.380 5   1366101.67815     -2652.527          30.600  
G12  20175206.132 3   -372010.59013       757.730          23.400  
G19  23837932.180 5    371214.42715     -2740.648          33.000  
G24  22921086.499 5   1480254.14015     -2889.894          33.800  
G25  21514490.565 6  -1288304.334 6      2350.582          36.200  
G29  23498246.039 4   -283575.04914      2329.408          28.800  
> 2020 06 10 20 12 14.4432867  0  8                     
G02  20928788.552 6    417489.061 6      -884.938          35.800  
G05  23374003.165 5   -772094.814 5      3320.435          35.100  
G06  22189000.026 5   1368753.709 5     -2653.298          31.000  
G12  20175082.732 3              23       756.700          21.900  
G19  23838482.113 5    373955.693 5     -2743.249          34.100  
G24  22921680.501 6   1483144.435 6     -2891.797          36.400  
G25  21514073.368 6  -1290656.181 6      2352.640          37.100  
G29  23497833.639 5   -285905.315 5      2331.295          29.500  
> 2020 06 10 20 12 15.4432867  0  8                     
G02  20928960.740 5    418379.274 5      -894.992          35.400  
G05  23373378.505 6   -775407.865 6      3306.726          35.500  
G06  22189513.078 5   1371412.249 5     -2663.469          32.100  
G12  20174949.431 3   -373527.99523       753.671          22.500  
G19  23839008.656 5    376705.211 5     -2755.222          34.200  
G24  22922227.130 6   1486040.757 6     -2900.908          36.300  
G25  21513622.287 6  -1293006.550 6      2347.124          36.900  
G29  23497386.456 5   -288235.087 5      2326.755          30.200  
> 2020 06 10 20 12 16.4432867  0  8                     
G02  20929130.309 5    419275.422 5      -894.243          35.200  
G05  23372748.227 6   -778713.019 6      3307.145          36.800  
G06  22190016.316 5   1374077.012 5     -2662.465          31.400  
G12  20174798.222 4   -374278.75814       751.295          26.500  
G19  23839532.280 5    379461.696 5     -2754.159          34.100  
G24  22922777.736 6   1488942.826 6     -2900.490          35.600  
G25  21513177.881 6  -1295353.053 6      2348.353          37.400  
G29  23496947.446 5   -290561.177 5      2327.869          31.700  
> 2020 06 10 20 12 17.4432867  0  8                     
G02  20929300.413 5    420167.783 5      -889.340          34.400  
G05  23372120.584 6   -782022.800 6      3314.250          35.500  
G06  22190528.783 5   1376737.791 5     -2658.116          30.800  
G12  20174650.846 4   -375031.65914       756.003          24.600  
G19  23840056.739 5    382213.568 5     -2748.793          33.900  
G24  22923327.377 5   1491841.050 5     -2893.787          34.300  
G25  21512734.910 6  -1297702.741 6      2352.560          36.700  
G29  23496501.177 5   -292890.403 5      2332.784          30.100  
> 2020 06 10 20 12 18.4432867  0  8                     
G02  20929467.191 5    421057.501 5      -893.463          34.700  
G05  23371488.115 5   -785337.360 5      3311.569          35.400  
G06  22191033.727 5   1379397.377 5     -2662.801          33.300  
G12  20174527.125 4   -375787.75914       752.035          25.700  
G19  23840575.173 5    384963.689 5     -2752.985          34.000  
G24  22923881.787 5   1494734.990 5     -2896.799          34.800  
G25  21512286.514 6  -1300054.444 6      2347.746          37.300  
G29  23496057.578 5   -295222.837 5      2328.665          30.900  
> 2020 06 10 20 12 19.4432867  0  8                     
G02  20929640.089 5    421951.065 5      -895.282          34.500  
G05  23370857.269 6   -788649.689 6      3311.331          35.600  
G06  22191539.694 5   1382060.092 5     -2664.243          32.600  
G12  20174377.446 4   -376538.99014       749.453          24.600  
G19  23841102.425 5    387715.929 5     -2753.041          34.100  
G24  22924433.922 5   1497631.931 5     -2898.853          34.700  
G25  21511838.241 6  -1302401.418 6      2344.530          37.000  
G29  23495620.098 5   -297550.754 5      2325.296          30.700  
> 2020 06 10 20 12 20.4432867  0  8                     
G02  20929806.814 5    422848.010 5      -899.563          35.100  
G05  23370227.446 6   -791959.882 6      3307.821          35.800  
G06  22192044.885 5   1384725.679 5     -2668.778          31.900  
G12  20174228.190 4   -377286.08814       744.449          25.900  
G19  23841623.805 5    390470.107 5     -2757.014          34.100  
G24  22924980.484 6   1500532.836 6     -2903.745          35.700  
G25  21511390.392 6  -1304743.672 6      2339.082          37.400  
G29  23495176.146 5   -299873.525 5      2319.178          31.900  
> 2020 06 10 20 12 21.4432867  0  8                     
G02  20929979.589 5    423745.195 5      -892.630          34.600  
G05  23369601.274 6   -795271.545 6      3317.106          35.800  
G06  22192548.330 5   1387391.679 5     -2661.328          32.200  
G12  20174090.979 4   -378031.61314       749.829          24.700  
G19  23842148.536 5    393223.770 5     -2748.442          34.900  
G24  22925535.794 6   1503433.116 6     -2895.507          36.000  
G25  21510944.095 6  -1307084.757 6      2345.247          37.200  
G29  23494730.149 5   -302195.558 5      2326.385          30.400  
> 2020 06 10 20 12 22.4432868  0  8                     
G02  20930185.178 5    424638.753 5      -894.305          33.700  
G05  23368996.524 5   -798588.80115      3315.164          32.600  
G06  22193087.588 5   1390053.738 5     -2662.604          32.000  
G12  20173982.985 4   -378781.45414       748.232          24.300  
G19  23842700.985 5    395972.642 5     -2748.826          33.700  
G24  22926114.924 6   1506329.732 6     -2897.189          35.500  
G25  21510530.013 6  -1309428.505 6      2342.539          37.000  
G29  23494320.264 5   -304520.27115      2323.651          30.300  
> 2020 06 10 20 12 23.4432868  0  8                     
G02  20930350.728 5    425531.28915      -889.853          30.000  
G05  23368360.429 4              24      3313.800          28.100  
G06  22193596.701 4   1392715.72914     -2663.547          27.900  
G12  20173843.647 4   -379531.32314       752.074          24.400  
G19  23843219.691 4    398718.00114     -2741.441          23.600  
G24  22926672.903 4   1509227.62914     -2900.819          27.500  
G25  21510085.187 5  -1311773.17715      2346.576          33.600  
G29  23493874.538 4   -306845.33614      2328.204          27.400  
> 2020 06 10 20 12 24.4432868  0  8                     
G02  20930525.004 5    426423.94415      -895.228          33.300  
G05  23367732.460 6              26      3316.050          35.600  
G06  22194099.849 5   1395379.85515     -2662.157          30.200  
G12  20173690.250 4   -380285.12214       752.861          24.600  
G19  23843748.022 5              25     -2747.800          33.500  
G24  22927217.722 5   1512129.96515     -2901.068          34.700  
G25  21509641.890 5  -1314116.71015      2341.454          33.200  
G29  23493430.641 4   -309177.18014      2328.715          25.500  
> 2020 06 10 20 12 25.4432868  0  8                     
G02  20930689.010 5    427315.176 5      -888.442          34.400  
G05  23367099.319 5   -808524.192 5      3324.232          34.800  
G06  22194598.424 4   1398037.63214     -2654.419          27.600  
G12  20173552.965 4   -381037.01824       752.964          29.200  
G19  23844271.779 5    404199.60425     -2738.218          31.600  
G24  22927773.557 6   1515026.643 6     -2895.172          36.200  
G25  21509192.521 6  -1316459.620 6      2344.805          36.200  
G29  23492986.669 5   -311501.059 5      2323.528          29.600  
> 2020 06 10 20 12 26.4432868  0  8                     
G02  20930860.484 5    428204.532 5      -889.895          35.200  
G05  23366469.148 6   -811847.829 6      3323.790          36.400  
G06  22195108.064 4   1400692.373 4     -2654.775          28.400  
G12  20173403.961 4   -381788.83024       750.937          29.000  
G19  23844789.813 5    406937.65125     -2737.396          30.400  
G24  22928326.068 6   1517923.609 6     -2897.793          38.200  
G25  21508747.022 6  -1318802.970 6      2342.440          37.000  
G29  23492550.463 4   -313822.500 4      2320.435          29.400  
> 2020 06 10 20 12 27.4432868  0  8                     
G02  20931027.655 5    429093.982 5      -891.076          35.000  
G05  23365833.774 6   -815172.997 6      3324.426          35.700  
G06  22195616.998 4   1403346.609 4     -2656.097          27.800  
G12  20173267.742 4   -382540.22614       749.736          25.500  
G19  23845308.041 5    409673.98525     -2738.069          29.900  
G24  22928874.275 6   1520820.557 6     -2897.920          38.000  
G25  21508301.117 6  -1321145.402 6      2340.500          36.900  
G29  23492116.850 4   -316143.193 4      2319.058          28.000  
> 2020 06 10 20 12 28.4432869  0  8                     
G02  20931228.600 6    429984.596 6      -889.007          35.500  
G05  23365232.774 6   -818498.445 6      3327.653          35.700  
G06  22196151.313 4   1406002.742 4     -2654.521          29.200  
G12  20173149.108 4   -383289.82614       751.103          27.700  
G19  23845865.140 5    412411.61825     -2736.166          30.000  
G24  22929451.759 6   1523717.591 6     -2895.086          37.000  
G25  21507887.488 6  -1323485.812 6      2341.625          37.500  
G29  23491703.221 5   -318462.411 5      2320.513          29.600  
> 2020 06 10 20 12 29.4432869  0  8                     
G02  20931398.049 5    430875.974 5      -890.980          34.800  
G05  23364597.880 6   -821824.434 6      3327.333          36.000  
G06  22196655.030 5   1408659.706 5     -2656.463          30.500  
G12  20173020.863 4   -384038.60024       748.891          26.200  
G19  23846389.243 4    415149.46224     -2736.738          28.900  
G24  22930007.341 6   1526614.756 6     -2896.197          37.200  
G25  21507440.863 6  -1325824.785 6      2339.172          37.600  
G29  23491252.099 4   -320780.409 4      2318.511          28.600  
> 2020 06 10 20 12 30.4432869  0  8                     
G02  20931565.740 5    431762.957 5      -887.216          34.900  
G05  23363966.924 5   -825156.235 5      3332.931          35.400  
G06  22197162.686 5   1411312.639 5     -2654.332          30.700  
G12  20172869.575 4   -384791.63414       752.825          26.300  
G19  23846903.494 5    417882.92515     -2733.989          31.400  
G24  22930557.567 5   1529506.018 5     -2890.219          35.200  
G25  21506999.076 6  -1328167.662 6      2342.142          37.500  
G29  23490805.815 4   -323102.690 4      2322.730          29.000  
> 2020 06 10 20 12 31.4432869  0  8                     
G02  20931730.941 6    432651.656 6      -889.065          35.600  
G05  23363326.882 5   -828489.227 5      3333.530          34.400  
G06  22197665.153 5   1413968.851 5     -2656.865          31.700  
G12  20172726.888 4   -385542.917 4       750.810          27.200  
G19  23847425.148 5    420618.732 5     -2736.165          33.000  
G24  22931106.802 6   1532395.804 6     -2889.399          35.700  
G25  21506553.300 6  -1330508.417 6      2340.125          37.800  
G29  23490372.630 5   -325425.021 5      2322.064          29.700  
> 2020 06 10 20 12 32.4432869  0  8                     
G02  20931906.114 5    433541.288 5      -890.656          33.300  
G05  23362697.712 5   -831823.216 5      3333.922          35.000  
G06  22198175.494 5   1416626.032 5     -2657.964          31.300  
G12  20172569.591 3   -386293.57913       750.058          23.100  
G19  23847946.881 5    423354.623 5     -2736.087          33.300  
G24  22931648.921 6   1535285.275 6     -2890.099          35.600  
G25  21506105.804 6  -1332847.701 6      2338.018          37.200  
G29  23489934.128 4   -327746.537 4      2320.639          27.500  
> 2020 06 10 20 12 33.4432869  0  8                     
G02  20932072.597 5    434433.856 5      -895.356          35.100  
G05  23362064.949 5   -835155.216 5      3329.565          34.300  
G06  22198678.944 5   1419286.050 5     -2662.753          30.800  
G12  20172447.375 4   -387040.72614       743.631          28.100  
G19  23848462.323 5    426092.626 5     -2740.333          33.400  
G24  22932206.633 6   1538177.818 6     -2895.641          36.600  
G25  21505662.809 6  -1335182.958 6      2331.852          37.500  
G29  23489491.733 4   -330063.843 4      2313.616          27.600  
> 2020 06 10 20 12 34.4432870  0  8                     
G02  20932269.791 5    435328.823 5      -887.331          32.800  
G05  23361460.198 5   -838486.201 5      3339.566          34.100  
G06  22199220.000 4   1421947.965 4     -2654.140          29.400  
G12  20172323.191 3              23       754.600          23.000  
G19  23849018.968 5    428831.568 5     -2730.266          31.300  
G24  22932790.560 5   1541072.39315     -2887.249          34.700  
G25  21505244.529 6  -1337514.851 6      2339.187          36.700  
G29  23489076.151 4              24      2324.450          26.600  
> 2020 06 10 20 12 35.4432870  0  8                     
G02  20932444.049 5    436213.675 5      -887.754          33.700  
G05  23360822.018 5   -841828.106 5      3338.632          35.200  
G06  22199716.834 5   1424599.224 5     -2653.990          29.700  
G12  20172179.969 4   -388537.86424       751.486          24.800  
G19  23849536.788 5    431559.118 5     -2730.146          30.900  
G24  22933332.363 6   1543957.718 6     -2888.840          35.600  
G25  21504804.812 6  -1339856.458 6      2338.654          37.100  
G29  23488643.329 4              24      2322.350          28.600  
> 2020 06 10 20 12 36.4432870  0  8                     
G02  20932611.387 5    437099.903 5      -887.260          34.300  
G05  23360186.212 5   -845168.264 5      3338.689          35.100  
G06  22200225.635 4   1427251.518 4     -2653.333          29.200  
G12  20172040.919 4   -389289.52814       751.326          24.600  
G19  23850053.384 5    434287.458 5     -2729.861          31.900  
G24  22933880.437 6   1546845.212 6     -2888.181          36.000  
G25  21504357.275 6  -1342196.881 6      2339.745          37.600  
G29  23488195.193 4   -336998.091 4      2321.167          28.300  
> 2020 06 10 20 12 37.4432870  0  8                     
G02  20932786.217 5    437989.979 5      -889.260          33.500  
G05  23359550.703 5   -848504.455 5      3337.616          33.200  
G06  22200734.734 5   1429907.92115     -2655.680          30.100  
G12  20171893.772 3   -390038.27913       749.882          23.000  
G19  23850578.971 5    437019.974 5     -2731.503          31.300  
G24  22934437.503 5   1549735.446 5     -2888.663          34.400  
G25  21503913.334 6  -1344534.082 6      2338.349          36.900  
G29  23487760.245 4   -339316.82314      2320.218          26.400  
> 2020 06 10 20 12 38.4432870  0  8                     
G02  20932952.268 5    438881.819 5      -895.484          33.800  
G05  23358917.807 5   -851840.205 5      3333.079          32.500  
G06  22201238.652 5   1432566.53625     -2662.548          31.000  
G12  20171763.328 3   -390786.45713       745.080          23.400  
G19  23851098.477 5    439754.229 5     -2737.678          32.100  
G24  22934988.787 5   1552625.825 5     -2892.888          34.900  
G25  21503463.611 6  -1346869.671 6      2331.934          37.100  
G29  23487318.617 4   -341635.33624      2315.319          27.600  
> 2020 06 10 20 12 39.4432871  0  8                     
G02  20933149.901 5    439779.795 5      -897.739          32.500  
G05  23358311.696 5   -855171.586 5      3331.475          34.400  
G06  22201770.553 5   1435231.51425     -2664.202          30.800  
G12  20171644.080 4   -391527.65714       739.823          25.700  
G19  23851650.465 5    442493.929 5     -2738.327          32.900  
G24  22935566.257 5   1555520.934 5     -2895.903          35.100  
G25  21503055.963 6  -1349198.883 6      2329.011          36.900  
G29  23486896.579 4   -343948.33624      2312.377          28.600  
> 2020 06 10 20 12 40.4432871  0  8                     
G02  20933319.313 5    440675.893 5      -894.432          33.400  
G05  23357677.665 5   -858504.172 5      3333.682          34.900  
G06  22202283.827 4   1437893.46824     -2660.090          28.600  
G12  20171516.698 4   -392270.53214       744.631          25.900  
G19  23852163.439 5    445230.325 5     -2734.754          32.400  
G24  22936118.204 5   1558416.211 5     -2893.830          35.000  
G25  21502610.501 6  -1351529.250 6      2332.458          36.600  
G29  23486460.110 4   -346261.18914      2314.810          27.500  
> 2020 06 10 20 12 41.4432871  0  8                     
G02  20933490.320 5    441566.936 5      -892.070          33.700  
G05  23357043.728 5   -861840.159 5      3333.455          34.300  
G06  22202782.807 4   1440550.47414     -2657.777          28.500  
G12  20171361.530 4   -393018.34314       747.180          28.200  
G19  23852688.201 5    447962.255 5     -2733.284          33.300  
G24  22936668.148 6   1561307.000 6     -2892.159          35.900  
G25  21502165.134 6  -1353866.011 6      2336.961          36.500  
G29  23486024.937 4   -348580.28914      2319.899          28.400  
> 2020 06 10 20 12 42.4432871  0  8                     
G02  20933670.540 5    442462.340 5      -893.671          34.100  
G05  23356414.210 5   -865168.737 5      3330.071          34.500  
G06  22203291.600 4   1443211.161 4     -2658.647          28.000  
G12  20171217.676 4   -393762.684 4       746.254          28.900  
G19  23853207.487 5    450698.962 5     -2734.308          31.700  
G24  22937218.013 6   1564203.027 6     -2894.389          36.700  
G25  21501722.087 6  -1356200.928 6      2337.365          37.300  
G29  23485585.187 4   -350897.652 4      2319.633          28.300  
> 2020 06 10 20 12 43.4432871  0  8                     
G02  20933830.368 5    443352.758 5      -889.153          33.900  
G05  23355775.690 5   -868502.485 5      3335.941          34.700  
G06  22203794.990 4   1445866.365 4     -2653.914          29.100  
G12  20171079.510 4   -394512.241 4       750.860          28.700  
G19  23853730.363 6    453429.679 6     -2729.435          36.900  
G24  22937768.771 6   1567093.693 6     -2888.766          36.800  
G25  21501276.933 6  -1358541.614 6      2341.730          37.200  
G29  23485135.237 4   -353220.64214      2325.340          29.300  
> 2020 06 10 20 12 44.4432872  0  8                     
G02  20934032.217 5    444247.908 5      -902.631          33.100  
G05  23355172.896 5   -871833.455 5      3324.325          33.900  
G06  22204334.405 5   1448526.442 5     -2667.466          31.500  
G12  20170962.679 4   -395256.615 4       736.563          27.500  
G19  23854279.971 6    456164.146 6     -2741.548          37.500  
G24  22938349.257 6   1569988.116 6     -2901.571          36.200  
G25  21500860.010 6  -1360876.868 6      2327.291          37.300  
G29  23484725.808 4   -355542.61214      2314.205          27.600  
> 2020 06 10 20 12 45.4432872  0  8                     
G02  20934206.330 5    445154.694 5      -907.310          34.700  
G05  23354540.267 5   -875154.667 5      3321.332          34.300  
G06  22204850.881 5   1451198.296 5     -2672.686          31.300  
G12  20170826.506 4   -395989.14214       731.971          26.900  
G19  23854803.342 6    458909.36816     -2745.943          36.900  
G24  22938902.907 6   1572892.854 6     -2904.806          36.900  
G25  21500418.649 6  -1363199.713 6      2322.038          37.600  
G29  23484287.745 4   -357849.42714      2305.319          27.800  
> 2020 06 10 20 12 46.4432872  0  8                     
G02  20934378.255 5    446064.535 5      -911.294          33.700  
G05  23353909.948 5   -878473.914 5      3317.869          34.500  
G06  22205351.378 5   1453873.461 5     -2676.370          32.600  
G12  20170682.450 4   -396718.84124       728.336          28.200  
G19  23855320.928 5    461657.101 5     -2749.339          33.800  
G24  22939456.768 6   1575799.911 6     -2908.753          35.900  
G25  21499979.297 6  -1365519.045 6      2317.608          37.400  
G29  23483851.391 4   -360152.62214      2301.196          28.800  
> 2020 06 10 20 12 47.4432872  0  8                     
G02  20934547.310 5    446974.840 5      -907.087          33.500  
G05  23353280.655 5   -881793.274 5      3322.495          35.000  
G06  22205862.496 4   1456549.65714     -2672.508          29.300  
G12  20170544.817 4   -397447.38714       731.361          27.700  
G19  23855850.034 5    464404.873 5     -2744.081          33.000  
G24  22940010.157 6   1578707.671 6     -2905.024          36.400  
G25  21499535.876 6  -1367837.465 6      2321.658          36.900  
G29  23483417.264 4   -362454.90714      2305.280          28.600  
> 2020 06 10 20 12 48.4432872  0  8                     
G02  20934721.168 5    447887.065 5      -917.185          34.100  
G05  23352644.175 5   -885110.066 5      3311.375          34.600  
G06  22206372.722 5   1459226.22615     -2681.121          30.100  
G12  20170394.600 4   -398174.58314       721.761          24.400  
G19  23856366.555 5    467153.689 5     -2753.448          34.000  
G24  22940565.951 6   1581618.308 6     -2915.623          37.500  
G25  21499097.858 6  -1370154.540 6      2312.787          37.800  
G29  23482974.449 5   -364754.71115      2296.040          29.800  
> 2020 06 10 20 12 49.4432872  0  8                     
G02  20934901.630 5    448806.452 5      -922.587          33.400  
G05  23352015.797 5   -888419.342 5      3306.355          34.800  
G06  22206884.455 5   1461909.319 5     -2685.804          30.400  
G12  20170287.562 4   -398895.12314       717.718          23.500  
G19  23856891.179 5    469908.930 5     -2757.934          32.700  
G24  22941121.154 6   1584535.641 6     -2919.991          37.500  
G25  21498659.549 6  -1372465.914 6      2308.551          36.900  
G29  23482538.838 4   -367049.706 4      2292.657          27.300  
> 2020 06 10 20 12 50.4432872  0  8                     
G02  20935068.540 5    449728.539 5      -919.610          33.200  
G05  23351388.856 5   -891726.078 5      3309.825          33.700  
G06  22207383.535 5   1464595.068 5     -2683.087          30.000  
G12  20170127.698 4   -399610.61614       718.239          24.000  
G19  23857415.441 5    472666.691 5     -2754.989          32.100  
G24  22941673.297 6   1587455.082 6     -2916.200          36.200  
G25  21498211.584 6  -1374774.949 6      2311.499          37.000  
G29  23482112.758 4   -369343.40714      2296.419          27.700  
> 2020 06 10 20 12 51.4432872  0  8                     
G02  20935248.067 5    450649.001 5      -923.199          34.200  
G05  23350756.845 5   -895034.777 5      3306.108          34.200  
G06  22207906.024 5   1467279.535 5     -2686.988          30.000  
G12  20170002.336 4   -400329.09314       716.355          24.800  
G19  23857946.925 5    475422.985 5     -2758.607          32.600  
G24  22942230.262 6   1590372.515 6     -2920.095          36.700  
G25  21497779.235 6  -1377085.456 6      2307.827          37.200  
G29  23481671.715 4   -371638.064 4      2291.988          28.200  
> 2020 06 10 20 12 52.4432872  0  8                     
G02  20935428.657 5    451572.800 5      -921.115          33.200  
G05  23350126.496 5   -898340.371 5      3307.826          33.600  
G06  22208422.082 5   1469967.072 5     -2684.888          30.100  
G12  20169861.248 4   -401044.34814       717.911          24.100  
G19  23858466.280 5    478182.024 5     -2756.430          32.800  
G24  22942785.292 6   1593292.854 6     -2917.491          35.900  
G25  21497334.757 6  -1379393.189 6      2310.987          37.000  
G29  23481229.335 4   -373930.326 4      2295.614          27.500  
> 2020 06 10 20 12 53.4432872  0  8                     
G02  20935598.190 5    452493.760 5      -923.297          34.400  
G05  23349499.781 5   -901647.892 5      3304.935          34.700  
G06  22208926.783 5   1472651.723 5     -2686.917          29.900  
G12  20169728.291 4   -401762.91714       716.071          25.900  
G19  23858991.067 5    480938.450 5     -2758.956          33.000  
G24  22943341.258 6   1596210.158 6     -2919.587          36.200  
G25  21496898.710 6  -1381704.984 6      2309.730          37.500  
G29  23480793.588 4   -376226.831 4      2294.510          28.500  
> 2020 06 10 20 12 54.4432872  0  8                     
G02  20935779.880 5    453419.126 5      -927.241          33.700  
G05  23348868.734 5   -904951.249 5      3302.745          33.500  
G06  22209434.348 5   1475341.272 5     -2691.450          30.900  
G12  20169587.104 4   -402477.65114       712.879          27.800  
G19  23859517.219 5    483699.705 5     -2762.917          33.500  
G24  22943896.190 6   1599131.182 6     -2921.861          35.700  
G25  21496458.630 6  -1384012.474 6      2305.348          37.500  
G29  23480360.404 4   -378518.912 4      2290.829          28.900  
> 2020 06 10 20 12 55.4432872  0  8                     
G02  20935954.775 5    454348.064 5      -928.541          33.700  
G05  23348239.585 6   -908253.152 6      3302.699          35.600  
G06  22209951.006 5   1478034.812 5     -2693.218          30.800  
G12  20169454.113 4   -403188.561 4       711.065          29.300  
G19  23860043.471 5    486464.086 5     -2763.723          33.500  
G24  22944456.019 6   1602054.250 6     -2922.917          36.000  
G25  21496021.649 6  -1386315.581 6      2302.763          37.800  
G29  23479917.427 4   -380807.895 4      2288.468          28.900  
> 2020 06 10 20 12 56.4432872  0  8                     
G02  20936129.320 5    455277.166 5      -927.417          33.200  
G05  23347609.187 5   -911555.761 5      3305.123          34.600  
G06  22210462.218 4   1480728.109 4     -2691.245          29.100  
G12  20169319.571 4   -403898.784 4       711.950          28.800  
G19  23860568.173 5    489227.407 5     -2760.492          32.400  
G24  22945013.698 6   1604978.186 6     -2922.396          36.000  
G25  21495581.619 6  -1388617.243 6      2302.885          37.200  
G29  23479485.791 4   -383094.911 4      2288.309          28.500  
> 2020 06 10 20 12 57.4432872  0  8                     
G02  20936305.922 5    456202.358 5      -924.138          33.500  
G05  23346983.545 5   -914863.912 5      3310.017          33.100  
G06  22210969.791 5   1483416.860 5     -2687.645          29.900  
G12  20169174.496 4   -404612.34814       714.603          26.000  
G19  23861094.933 5    491984.934 5     -2755.951          32.500  
G24  22945561.744 6   1607898.571 6     -2919.091          35.800  
G25  21495143.947 6  -1390921.694 6      2305.028          37.000  
G29  23479052.316 4   -385384.97014      2290.113          28.300  
> 2020 06 10 20 12 58.4432872  0  8                     
G02  20936482.740 5    457125.716 5      -925.287          34.100  
G05  23346357.519 5   -918175.404 5      3310.043          33.100  
G06  22211485.075 5   1486103.915 5     -2689.436          31.100  
G12  20169047.325 4   -405327.34714       713.201          29.100  
G19  23861623.707 5    494739.992 5     -2757.168          33.100  
G24  22946120.797 6   1610816.319 6     -2919.444          36.500  
G25  21494704.991 6  -1393227.082 6      2303.082          37.500  
G29  23478618.456 5              25      2305.900          31.600  
> 2020 06 10 20 12 59.4432872  0  8                     
G02  20936658.995 6    458054.519 6      -929.691          35.500  
G05  23345728.531 5   -921482.857 5      3306.923          32.500  
G06  22211996.797 6   1488796.523 6     -2693.196          37.200  
G12  20168912.695 4   -406036.20714       707.685          28.500  
G19  23862142.326 5    497500.027 5     -2760.824          33.300  
G24  22946676.889 4   1613738.86614     -2924.313          28.900  
G25  21494269.070 6  -1395526.458 6      2298.206          38.000  
G29  23478174.141 5              25      2286.500          29.900  
> 2020 06 10 20 13 00.4432872  0  8                     
G02  20936842.939 5    458986.812 5      -933.024          33.500  
G05  23345094.042 5   -924787.62115      3304.347          32.000  
G06  22212514.710 6   1491491.841 6     -2696.806          37.800  
G12  20168772.563 4   -406741.05014       704.681          27.500  
G19  23862669.532 6    500262.75816     -2762.658          36.700  
G24  22947241.869 4   1616663.87514     -2926.092          24.400  
G25  21493833.043 6  -1397821.637 6      2294.352          38.300  
G29  23477753.703 4   -392256.78124      2273.291          26.500  
> 2020 06 10 20 13 01.4432871  0  8                     
G02  20937020.044 5    459919.610 5      -930.505          34.600  
G05  23344465.904 5   -928092.609 5      3307.522          34.800  
G06  22213029.381 6   1494189.59916     -2695.371          38.200  
G12  20168653.173 5   -407445.860 5       706.829          29.800  
G19  23863198.892 5    503024.59415     -2758.958          34.400  
G24  22947790.716 4   1619588.86414     -2921.149          24.300  
G25  21493393.774 6  -1400115.990 6      2296.146          37.300  
G29  23477319.831 4   -394531.08714      2279.614          24.800  
> 2020 06 10 20 13 02.4432872  0  8                     
G02  20937191.043 5    460849.625 5      -929.470          34.200  
G05  23343840.054 5   -931401.88415      3309.719          34.100  
G06  22213538.246 6   1496884.39816     -2693.488          35.800  
G12  20168508.491 5   -408153.91815       707.699          30.100  
G19  23863723.347 5    505783.18815     -2759.967          31.900  
G24  22948351.445 6   1622509.84216     -2922.368          36.300  
G25  21492959.193 6  -1402412.570 6      2296.944          37.800  
G29  23476888.247 4   -396811.69614      2281.180          24.400  
> 2020 06 10 20 13 03.4432872  0  8                     
G02  20937368.603 5    461780.486 5      -929.661          34.500  
G05  23343209.974 5   -934710.985 5      3310.935          31.800  
G06  22214049.176 5   1499578.29615     -2692.629          32.100  
G12  20168370.969 4              24       709.000          27.600  
G19  23864246.568 5    508543.65315     -2757.527          31.900  
G24  22948903.147 6   1625433.99116     -2922.086          36.700  
G25  21492524.877 6  -1404707.435 6      2295.890          37.300  
G29  23476441.939 5   -399092.47815      2281.399          29.800  
> 2020 06 10 20 13 04.4432872  0  8                     
G02  20937542.641 5    462710.442 5      -932.768          33.100  
G05  23342573.672 5   -938022.578 5      3309.289          30.700  
G06  22214560.180 5   1502271.91115     -2696.450          31.700  
G12  20168237.420 4              24       703.350          29.100  
G19  23864767.165 5    511300.905 5     -2760.077          35.400  
G24  22949459.420 6   1628355.737 6     -2924.016          36.300  
G25  21492081.641 6  -1407002.844 6      2292.392          37.000  
G29  23476007.098 5   -401374.84915      2278.743          32.600  
> 2020 06 10 20 13 05.4432872  0  8                     
G02  20937721.601 5    463644.200 5      -929.510          32.500  
G05  23341947.990 5   -941331.708 5      3314.997          33.500  
G06  22215072.809 5   1504969.25715     -2693.478          32.400  
G12  20168108.193 4   -410242.17524       706.846          27.900  
G19  23865299.581 5    514061.489 5     -2755.525          34.300  
G24  22950012.521 5   1631280.377 5     -2919.773          35.200  
G25  21491650.524 6  -1409294.003 6      2295.188          36.200  
G29  23475571.784 5   -403652.65225      2283.317          29.900  
> 2020 06 10 20 13 06.4432872  0  8                     
G02  20937897.942 5    464571.188 5      -928.431          33.600  
G05  23341316.390 5   -944648.718 5      3316.384          34.700  
G06  22215584.918 5   1507660.154 5     -2692.257          32.600  
G12  20167973.950 4   -410950.97914       707.842          27.300  
G19  23865821.883 5    516815.117 5     -2754.580          34.300  
G24  22950568.100 6   1634197.003 6     -2917.995          36.100  
G25  21491210.792 6  -1411591.403 6      2295.634          37.300  
G29  23475135.050 5   -405937.88915      2283.678          29.700  
> 2020 06 10 20 13 07.4432872  0  8                     
G02  20938077.682 5    465502.234 5      -930.414          34.200  
G05  23340687.889 5   -947962.966 5      3316.191          33.100  
G06  22216095.928 5   1510354.961 5     -2694.038          32.900  
G12  20167835.309 4   -411656.69214       705.695          28.300  
G19  23866345.484 5    519571.773 5     -2754.996          33.900  
G24  22951128.576 6   1637117.706 6     -2919.939          35.900  
G25  21490775.357 6  -1413884.086 6      2292.905          37.100  
G29  23474701.713 5   -408218.350 5      2281.336          30.400  
> 2020 06 10 20 13 08.4432872  0  8                     
G02  20938253.669 5    466431.785 5      -930.396          34.400  
G05  23340058.334 5   -951280.423 5      3317.551          33.200  
G06  22216611.580 5   1513048.208 5     -2694.481          33.700  
G12  20167703.410 4   -412363.07814       705.481          27.600  
G19  23866868.931 5    522326.148 5     -2755.158          35.100  
G24  22951683.201 6   1640036.168 6     -2918.422          36.800  
G25  21490338.568 6  -1416177.553 6      2292.291          37.300  
G29  23474271.220 5   -410499.923 5      2280.863          30.800  
> 2020 06 10 20 13 09.4432872  0  8                     
G02  20938429.348 5    467361.573 5      -927.155          34.000  
G05  23339421.876 5   -954600.00015      3322.508          33.100  
G06  22217128.723 5   1515742.353 5     -2691.648          31.200  
G12  20167569.403 4   -413069.11914       708.609          27.500  
G19  23867392.669 5    525080.723 5     -2751.810          34.400  
G24  22952237.818 6   1642953.040 6     -2913.336          36.800  
G25  21489899.074 6  -1418470.285 6      2295.109          37.000  
G29  23473837.422 5   -412781.672 5      2284.598          30.600  
> 2020 06 10 20 13 10.4432872  0  8                     
G02  20938607.071 5    468286.470 5      -925.938          34.000  
G05  23338791.658 5   -957925.51925      3324.537          32.900  
G06  22217634.719 5   1518431.797 5     -2690.085          32.000  
G12  20167435.642 4   -413779.78814       709.570          27.500  
G19  23867917.252 5    527829.802 5     -2749.751          35.000  
G24  22952788.483 6   1645863.964 6     -2912.500          35.700  
G25  21489466.419 6  -1420767.348 6      2295.610          37.100  
G29  23473405.367 5   -415068.332 5      2284.689          31.600  
> 2020 06 10 20 13 11.4432873  0  8                     
G02  20938810.656 5    469212.62315      -918.285          30.600  
G05  23338192.399 5   -961249.84015      3332.034          30.000  
G06  22218179.168 4   1521121.65014     -2682.806          26.300  
G12  20167333.739 4   -414487.56314       713.467          25.800  
G19  23868469.496 4              24     -2738.850          29.400  
G24  22953374.603 5   1648777.90115     -2907.167          32.200  
G25  21489055.130 5  -1423062.15815      2302.431          33.300  
G29  23473003.971 4   -417351.19614      2290.247          28.000  
> 2020 06 10 20 13 12.4432873  0  8                     
G02  20938986.637 5    470124.658 5      -913.581          34.300  
G05  23337552.645 5   -964587.833 5      3336.991          34.800  
G06  22218684.321 5   1523797.63215     -2675.210          29.500  
G12  20167190.741 4   -415207.703 4       720.932          28.700  
G19  23868985.741 5    533318.665 5     -2733.035          32.400  
G24  22953928.922 6   1651679.838 6     -2903.974          35.800  
G25  21488619.535 6  -1425370.167 6      2306.123          37.300  
G29  23472562.080 5   -419646.121 5      2293.208          32.000  
> 2020 06 10 20 13 13.4432873  0  8                     
G02  20939159.437 5    471041.009 5      -919.802          34.100  
G05  23336917.503 5   -967922.711 5      3331.800          34.300  
G06  22219191.389 5   1526475.653 5     -2681.463          30.400  
G12  20167051.156 4   -415925.46714       714.326          27.700  
G19  23869508.698 5    536053.901 5     -2738.717          33.900  
G24  22954482.158 5   1654586.555 5     -2909.858          35.300  
G25  21488181.956 6  -1427673.258 6      2299.558          36.900  
G29  23472122.103 4   -421936.404 4      2286.851          29.200  
> 2020 06 10 20 13 14.4432873  0  8                     
G02  20939339.563 5    471965.707 5      -927.134          34.400  
G05  23336280.995 5   -971250.128 5      3324.962          33.400  
G06  22219709.981 5   1529162.328 5     -2688.989          29.800  
G12  20166909.905 4   -416634.91414       707.064          28.600  
G19  23870033.286 5    538797.449 5     -2745.841          34.300  
G24  22955034.627 6   1657500.68016     -2916.299          35.700  
G25  21487743.611 6  -1429967.757 6      2292.270          37.300  
G29  23471690.653 5   -424218.532 5      2280.150          31.200  
> 2020 06 10 20 13 15.4432873  0  8                     
G02  20939510.566 5    472897.450 5      -936.761          33.300  
G05  23335650.953 5   -974570.193 5      3313.719          32.400  
G06  22220220.649 5   1531855.878 5     -2698.856          29.800  
G12  20166786.512 4   -417338.11914       697.972          27.900  
G19  23870572.734 4    541547.37014     -2756.580          27.000  
G24  22955589.664 6   1660421.679 6     -2926.633          37.200  
G25  21487309.033 6  -1432256.005 6      2283.942          37.500  
G29  23471254.576 5   -426494.538 5      2271.366          31.700  
> 2020 06 10 20 13 16.4432873  0  8                     
G02  20939688.545 5    473831.345 5      -929.567          34.500  
G05  23335014.395 5   -977886.428 5      3319.558          32.700  
G06  22220727.200 5   1534551.19915     -2691.165          29.800  
G12  20166650.907 4   -418039.20124       705.717          29.000  
G19                                                                
G24  22956144.481 6   1663345.042 6     -2919.275          36.400  
G25  21486869.139 6  -1434543.973 6      2293.142          37.300  
G29  23470823.376 5   -428770.328 5      2280.844          32.400  
> 2020 06 10 20 13 17.4432873  0  8                     
G02  20939873.701 5    474763.255 5      -931.887          34.000  
G05  23334385.315 5   -981202.843 5      3316.616          32.300  
G06  22221241.528 4              24     -2692.350          28.500  
G12  20166518.883 4   -418742.95514       704.093          28.100  
G19  23871700.639 3              23     -2744.050          20.400  
G24  22956702.579 5   1666266.368 5     -2920.591          34.300  
G25  21486439.721 6  -1436835.690 6      2292.531          36.700  
G29  23470384.964 5   -431050.031 5      2281.180          31.400  
> 2020 06 10 20 13 18.4432873  0  8                     
G02  20940049.167 5    475695.893 5      -935.799          34.200  
G05  23333755.539 5   -984517.985 5      3311.077          32.800  
G06  22221772.249 5   1539946.843 5     -2697.268          31.400  
G12  20166385.563 5   -419445.986 5       700.572          30.600  
G19  23872121.935 5              25     -2755.550          33.600  
G24  22957253.086 5   1669187.500 5     -2924.441          35.100  
G25  21485998.214 6  -1439128.208 6      2290.167          37.300  
G29  23469954.550 5   -433331.15315      2278.708          31.300  
> 2020 06 10 20 13 19.4432873  0  8                     
G02  20940220.831 5    476630.086 5      -927.525          34.300  
G05  23333127.056 5   -987829.550 5      3317.177          33.000  
G06  22222267.089 4   1542642.122 4     -2688.081          28.500  
G12  20166249.640 4   -420148.669 4       709.494          28.900  
G19  23872640.159 5    552565.774 5     -2746.656          33.800  
G24  22957815.079 5   1672110.859 5     -2917.364          34.800  
G25  21485564.597 6  -1441421.015 6      2300.233          37.000  
G29  23469519.734 5   -435612.367 5      2288.330          31.900  
> 2020 06 10 20 13 20.4432873  0  8                     
G02  20940405.903 5    477555.544 5      -927.161          34.700  
G05  23332500.290 5   -991147.848 5      3316.897          33.100  
G06  22222776.236 4   1545328.345 4     -2687.888          28.200  
G12  20166108.238 5   -420860.319 5       710.055          31.000  
G19  23873174.190 5    555311.353 5     -2746.921          33.500  
G24  22958368.596 5   1675026.732 5     -2917.176          34.900  
G25  21485128.200 6  -1443723.475 6      2300.975          37.200  
G29  23469087.533 5   -437902.563 5      2289.042          32.400  
> 2020 06 10 20 13 21.4432873  0  8                     
G02  20940574.040 5    478484.384 5      -930.018          32.900  
G05  23331864.084 5   -994464.216 5      3315.927          33.000  
G06  22223295.730 5   1548017.772 5     -2690.695          31.600  
G12  20165977.182 4   -421569.24914       707.757          28.300  
G19  23873694.882 5    558059.314 5     -2748.959          35.000  
G24  22958922.866 6   1677944.416 6     -2917.735          35.600  
G25  21484691.055 6  -1446023.248 6      2298.882          36.700  
G29  23468649.490 5   -440191.115 5      2288.201          31.400  
> 2020 06 10 20 13 22.4432873  0  8                     
G02  20940752.344 5    479417.803 5      -938.980          32.300  
G05  23331237.445 5   -997777.332 5      3308.391          32.400  
G06  22223794.512 5   1550712.477 5     -2700.636          30.500  
G12  20165836.207 4   -422273.71024       698.568          28.300  
G19  23874219.147 5    560812.151 5     -2758.370          35.100  
G24  22959479.508 6   1680864.678 6     -2924.884          35.700  
G25  21484252.986 6  -1448318.617 6      2289.825          37.000  
G29  23468218.915 5   -442476.383 5      2280.248          30.800  
> 2020 06 10 20 13 23.4432873  0  8                     
G02  20940929.883 5    480361.84415      -943.506          33.400  
G05  23330605.245 5  -1001081.207 5      3304.986          31.900  
G06  22224323.108 5   1553417.35315     -2704.819          31.100  
G12  20165721.448 4   -422967.03214       693.787          28.800  
G19  23874741.747 5    563575.077 5     -2761.722          34.900  
G24  22960037.783 6   1683794.025 6     -2928.508          36.700  
G25  21483816.850 6  -1450603.535 6      2285.231          37.500  
G29  23467783.978 5   -444752.53415      2276.263          32.000  
> 2020 06 10 20 13 24.4432873  0  8                     
G02  20941113.628 5    481305.227 5      -943.401          33.100  
G05  23329976.553 5  -1004386.267 5      3305.986          31.500  
G06  22224833.628 5              25     -2704.450          31.100  
G12  20165587.114 4   -423660.86914       694.311          26.800  
G19  23875275.950 5    566337.291 5     -2760.857          34.700  
G24  22960593.572 6   1686722.733 6     -2928.058          35.600  
G25  21483382.723 6  -1452888.802 6      2285.235          37.400  
G29  23467354.648 5   -447027.949 5      2276.624          30.500  
> 2020 06 10 20 13 25.4432873  0  8                     
G02  20941292.406 5    482247.608 5      -941.811          32.100  
G05  23329355.484 5  -1007693.414 5      3308.026          32.000  
G06  22225348.473 5   1558835.36025     -2702.754          30.900  
G12  20165448.711 4   -424356.12114       695.218          27.200  
G19  23875794.692 5    569097.121 5     -2758.932          34.800  
G24  22961152.786 6   1689649.764 6     -2926.369          36.200  
G25  21482947.826 6  -1455174.993 6      2286.648          37.400  
G29  23466919.451 5   -449305.226 5      2277.783          31.700  
> 2020 06 10 20 13 26.4432873  0  8                     
G02  20941472.774 5    483187.665 5      -937.786          33.500  
G05  23328715.620 5  -1011002.70815      3311.235          33.000  
G06  22225866.407 5   1561536.45925     -2698.421          30.500  
G12  20165319.693 4   -425053.06724       699.019          29.100  
G19  23876316.224 5    571854.411 5     -2754.403          34.200  
G24  22961708.494 6   1692574.841 6     -2923.438          36.200  
G25  21482510.621 6  -1457463.174 6      2290.378          37.600  
G29  23466482.846 5   -451584.256 5      2280.892          32.800  
> 2020 06 10 20 13 27.4432873  0  8                     
G02  20941646.577 5    484126.181 5      -944.644          32.900  
G05  23328090.176 5  -1014312.80925      3303.254          32.800  
G06  22226375.977 5   1564235.27125     -2704.919          30.600  
G12  20165184.710 4   -425751.55424       692.542          29.100  
G19  23876846.181 5    574609.252 5     -2761.160          32.500  
G24  22962262.134 5   1695499.594 5     -2931.321          35.400  
G25  21482076.745 6  -1459753.096 6      2284.262          37.000  
G29  23466047.770 5   -453864.357 5      2274.276          30.100  
> 2020 06 10 20 13 28.4432873  0  8                     
G02  20941836.182 5    485075.485 5      -949.414          33.900  
G05  23327459.249 5  -1017611.18915      3297.507          34.100  
G06  22226898.352 5   1566944.37715     -2709.286          31.000  
G12  20165056.235 4   -426439.57714       688.095          28.100  
G19  23877365.857 5    577374.02715     -2765.679          32.600  
G24  22962818.085 6   1698435.343 6     -2935.816          35.500  
G25  21481643.681 6  -1462033.557 6      2280.964          37.400  
G29  23465616.205 4   -456135.58014      2271.101          29.200  
> 2020 06 10 20 13 29.4432873  0  8                     
G02  20942009.272 5    486026.440 5      -947.481          33.400  
G05  23326837.890 5  -1020906.78825      3299.108          31.400  
G06  22227406.610 5   1569655.039 5     -2707.384          30.900  
G12  20164910.647 4   -427126.38814       690.429          28.400  
G19  23877900.497 5    580141.127 5     -2763.565          32.400  
G24  22963383.304 6   1701372.654 6     -2933.035          35.800  
G25  21481209.692 6  -1464313.630 6      2284.166          36.900  
G29  23465183.715 5   -458406.002 5      2275.323          32.100  
> 2020 06 10 20 13 30.4432873  0  8                     
G02  20942194.350 5    486975.285 5      -952.283          33.200  
G05  23326205.133 5  -1024203.95115      3293.512          32.000  
G06  22227920.860 5   1572364.541 5     -2712.625          31.400  
G12  20164780.342 4   -427815.459 4       686.450          28.300  
G19  23878419.543 5    582907.447 5     -2769.558          34.100  
G24  22963942.223 6   1704306.757 6     -2936.928          35.900  
G25  21480771.800 6  -1466597.205 6      2280.720          37.200  
G29  23464750.920 5   -460680.180 5      2272.273          30.300  
> 2020 06 10 20 13 31.4432873  0  8                     
G02  20942373.727 5    487924.260 5      -946.424          33.300  
G05  23325578.668 5  -1027500.996 5      3299.612          32.500  
G06  22228444.698 5   1575073.803 5     -2706.464          31.400  
G12  20164665.923 4   -428505.73614       692.464          27.900  
G19  23878951.476 5    585673.536 5     -2763.147          34.900  
G24  22964496.940 6   1707239.948 6     -2930.576          35.900  
G25  21480341.699 6  -1468881.696 6      2287.203          37.300  
G29  23464317.521 5   -462956.420 5      2278.876          32.400  
> 2020 06 10 20 13 32.4432873  0  8                     
G02  20942557.697 5    488873.119 5      -951.305          31.700  
G05  23324948.103 5  -1030798.368 5      3294.950          31.200  
G06  22228959.939 5   1577782.695 5     -2710.984          29.800  
G12  20164529.415 4   -429195.40624       687.071          28.000  
G19  23879478.409 5    588438.731 5     -2767.084          31.900  
G24  22965057.750 5   1710173.285 5     -2936.200          34.400  
G25  21479905.999 6  -1471166.152 6      2281.797          36.300  
G29  23463885.718 5   -465232.526 5      2273.112          29.900  
> 2020 06 10 20 13 33.4432873  0  8                     
G02  20942735.619 5              25      -936.050          31.900  
G05  23324325.878 3              23      3308.550          22.300  
G06  22229473.029 4              24     -2696.250          26.600  
G12  20164403.347 4              24       700.950          28.300  
G19  23880012.784 4              24     -2753.300          25.600  
G24  22965610.412 5   1713105.799 5     -2925.033          34.800  
G25  21479466.648 5  -1473451.12015      2292.250          35.000  
G29  23463451.464 5              25      2286.050          30.400  
> 2020 06 10 20 13 34.4432873  0  7                     
G02  20942921.380 4    490771.66324      -951.212          24.400  
G05  23323699.502 3              23      3298.350          20.900  
G12  20164272.527 3   -430577.33523       688.951          23.100  
G19  23880525.619 3              23     -2768.150          20.600  
G24  22966167.316 4   1716033.25314     -2930.999          26.700  
G25  21479028.840 5  -1475741.32615      2285.617          31.700  
G29  23463010.958 4   -469780.61624      2271.889          27.400  
> 2020 06 10 20 13 35.4432873  0  8                     
G02  20943099.314 5    491726.66115      -956.809          33.200  
G05  23323072.193 5  -1040692.558 5      3290.993          34.700  
G06  22230503.462 4              24     -2715.400          28.400  
G12  20164139.576 4   -431263.43214       682.558          26.900  
G19  23881056.108 5    596730.668 5     -2770.051          34.600  
G24  22966733.181 6              26     -2942.700          35.700  
G25  21478604.191 5              25      2274.600          34.800  
G29                                                                
> 2020 06 10 20 13 36.4432873  0  7                     
G02  20943279.108 6    492683.606 6      -953.870          36.000  
G05  23322441.648 6  -1043984.372 6      3294.020          35.500  
G06  22231018.425 5   1588624.949 5     -2711.501          31.000  
G12  20163992.297 5   -431943.87415       683.466          29.600  
G19  23881577.367 5    599498.928 5     -2765.238          33.100  
G24  22967294.312 6   1721904.072 6     -2941.158          37.400  
G25  21478167.912 6  -1480307.859 6      2277.701          37.900  
> 2020 06 10 20 13 37.4432873  0  8                     
G02  20943458.515 5    493635.152 5      -951.849          35.300  
G05  23321817.012 5  -1047280.51915      3294.649          34.300  
G06  22231532.700 5   1591333.443 5     -2708.527          29.600  
G12  20163874.910 4   -432630.34614       686.261          25.500  
G19  23882103.034 5    602261.03615     -2762.043          30.700  
G24  22967852.057 6   1724843.152 6     -2939.439          37.400  
G25  21477736.342 6  -1482588.334 6      2280.812          37.800  
G29  23461728.653 4     -1010.68724      2273.579          27.600  
> 2020 06 10 20 13 38.4432873  0  8                     
G02  20943641.991 6    494592.86116      -962.629          35.500  
G05  23321191.048 5  -1050570.17815      3285.005          35.100  
G06  22232051.943 5   1594048.70315     -2719.639          31.200  
G12  20163741.205 4   -433311.35614       677.062          25.700  
G19                                                                
G24  22968412.372 6   1727787.54716     -2949.057          37.200  
G25  21477299.847 6  -1484863.65516      2272.274          36.700  
G29  23461291.559 4              24      2262.800          27.100  
> 2020 06 10 20 13 39.4432873  0  8                     
G02  20943822.891 6    495555.416 6      -963.162          35.700  
G05  23320567.905 6  -1053852.492 6      3281.559          35.900  
G06  22232558.718 5   1596768.077 5     -2719.089          31.400  
G12  20163608.222 4   -433986.91914       675.502          26.100  
G19  23883158.431 5    607803.70325     -2772.771          32.400  
G24  22968974.308 6   1730738.671 6     -2951.044          38.900  
G25  21476866.173 6  -1487135.858 6      2272.087          37.700  
G29  23460862.381 4     -5551.56824      2262.452          27.200  
> 2020 06 10 20 13 40.4432873  0  8                     
G02  20944007.376 6    496516.029 6      -957.243          36.800  
G05  23319942.650 6  -1057135.215 6      3284.441          35.500  
G06  22233085.865 5   1599484.027 5     -2711.220          33.500  
G12  20163477.625 4   -434664.87324       681.253          27.800  
G19  23883690.076 5    610573.97325     -2765.301          30.800  
G24  22969531.435 6   1733688.610 6     -2949.052          40.300  
G25  21476432.186 6  -1489410.858 6      2278.576          37.900  
G29  23460439.486 4     -7815.94814      2266.636          28.300  
> 2020 06 10 20 13 41.4432873  0  8                     
G02  20944189.437 6    497469.073 6      -947.984          37.200  
G05  23319317.070 5  -1060422.121 5      3290.911          34.600  
G06  22233603.094 6   1602189.959 6     -2699.935          36.500  
G12  20163358.395 4   -435349.66314       689.604          29.000  
G19  23884215.699 4    613334.53714     -2754.512          28.200  
G24  22970097.530 6   1736636.069 6     -2943.941          40.900  
G25  21475998.773 6  -1491693.737 6      2288.124          37.200  
G29  23459998.579 5    -10085.58315      2274.307          29.700  
> 2020 06 10 20 13 42.4432873  0  8                     
G02  20944368.297 6    498416.718 6      -948.096          36.200  
G05  23318691.887 5  -1063711.725 5      3287.256          34.000  
G06  22234116.823 6   1604888.178 6     -2697.007          36.000  
G12  20163226.071 5   -436040.763 5       689.798          29.800  
G19  23884736.622 4    616086.34114     -2750.301          29.100  
G24  22970657.426 6   1739581.946 6     -2949.935          40.500  
G25  21475562.459 6  -1493982.417 6      2288.178          36.700  
G29  23459564.363 5    -12358.841 5      2271.164          32.100  
> 2020 06 10 20 13 43.4432873  0  8                     
G02  20944544.705 6    499366.638 6      -948.799          35.600  
G05  23318069.048 5  -1066995.627 5      3283.284          34.600  
G06  22234628.698 5   1607585.259 5     -2694.621          34.400  
G12  20163094.891 5   -436728.632 5       688.781          30.800  
G19  23885254.794 5    618836.74115     -2748.177          31.300  
G24  22971219.367 7   1742536.647 7     -2956.619          42.000  
G25  21475129.988 6  -1496269.003 6      2287.744          36.500  
G29  23459130.693 5    -14626.796 5      2267.452          32.800  
> 2020 06 10 20 13 44.4432873  0  8                     
G02  20944728.329 5    500315.810 5      -951.999          33.800  
G05  23317441.134 5  -1070276.411 5      3277.296          34.300  
G06  22235136.698 5   1610279.112 5     -2695.703          35.000  
G12  20162957.737 5   -437416.935 5       685.607          31.600  
G19  23885783.779 5    621584.53025     -2749.293          29.800  
G24  22971781.030 7   1745496.230 7     -2963.562          42.000  
G25  21474693.941 6  -1498556.428 6      2285.091          36.000  
G29  23458700.642 5    -16892.696 5      2263.013          32.300  
> 2020 06 10 20 13 45.4432873  0  8                     
G02  20944906.010 5    501268.490 5      -948.820          32.400  
G05  23316816.570 5  -1073552.11115      3278.261          33.000  
G06  22235653.444 5   1612974.835 5     -2691.311          34.000  
G12  20162830.229 5   -438101.803 5       688.796          30.500  
G19  23886306.520 4              24     -2741.100          27.500  
G24  22972345.742 6   1748461.886 6     -2962.306          40.800  
G25  21474255.249 5  -1500841.256 5      2289.277          34.100  
G29  23458278.738 4    -19154.745 4      2266.485          29.100  
> 2020 06 10 20 13 46.4432873  0  8                     
G02  20945088.346 5    502208.642 5      -934.341          33.100  
G05  23316185.569 5  -1076838.12525      3292.003          32.400  
G06  22236161.055 5   1615656.814 5     -2675.562          34.800  
G12  20162699.282 5   -438799.475 5       703.562          30.100  
G19  23886829.121 4    627072.70224     -2727.695          27.700  
G24  22972908.215 6   1751416.595 6     -2948.965          40.600  
G25  21473821.811 5  -1503139.823 5      2304.665          34.500  
G29  23457833.908 4    -21429.850 4      2281.195          28.400  
> 2020 06 10 20 13 47.4432873  0  8                     
G02  20945267.011 5    503144.137 5      -940.822          34.200  
G05  23315564.089 5  -1080129.28025      3286.009          33.600  
G06  22236669.492 5   1618333.872 5     -2681.902          34.400  
G12  20162558.069 5   -439501.572 5       696.506          30.800  
G19  23887343.254 4    629799.23014     -2733.129          29.000  
G24  22973468.217 6   1754366.708 6     -2956.131          41.200  
G25  21473383.504 5  -1505442.755 5      2297.193          35.200  
G29  23457406.993 4    -23709.385 4      2273.356          28.100  
> 2020 06 10 20 13 48.4432873  0  8                     
G02  20945442.578 5    504089.789 5      -944.981          33.300  
G05  23314935.613 6  -1083409.12616      3279.717          35.700  
G06  22237182.326 5   1621019.453 5     -2683.245          33.500  
G12  20162432.045 5   -440192.892 5       691.691          30.000  
G19  23887870.778 5    632537.531 5     -2735.609          32.000  
G24  22974034.414 6   1757330.123 6     -2965.737          40.600  
G25  21472951.092 5  -1507734.509 5      2292.071          35.300  
G29  23456970.684 4    -25976.01814      2265.377          29.300  
> 2020 06 10 20 13 49.4432873  0  8                     
G02  20945625.594 5    505032.902 5      -943.763          34.400  
G05  23314311.287 6  -1086688.542 6      3277.492          35.500  
G06  22237694.813 5   1623699.073 5     -2678.810          34.000  
G12  20162301.178 5   -440886.092 5       692.428          30.100  
G19  23888393.458 5    635269.35615     -2729.942          30.300  
G24  22974596.966 6   1760297.787 6     -2970.886          41.000  
G25  21472513.237 6  -1510028.119 6      2292.939          36.500  
G29  23456542.122 4    -28241.32514      2262.699          26.300  
> 2020 06 10 20 13 50.4432873  0  8                     
G02  20945809.295 5    505978.957 5      -946.389          34.500  
G05  23313696.941 6  -1089962.301 6      3272.516          38.300  
G06  22238204.988 5   1626378.47715     -2679.052          33.000  
G12  20162172.795 5   -441575.866 5       689.272          30.500  
G19  23888909.929 5    638001.67815     -2731.861          31.000  
G24  22975165.001 6   1763273.485 6     -2978.002          41.200  
G25  21472075.469 6  -1512318.584 6      2290.177          37.200  
G29  23456117.845 4    -30500.80414      2258.071          27.500  
> 2020 06 10 20 13 51.4432873  0  8                     
G02  20945981.242 5    506921.381 5      -935.351          34.300  
G05  23313071.739 6  -1093237.229 6      3280.477          38.500  
G06  22238720.797 3   1629054.36513     -2674.995          22.900  
G12  20162033.558 4   -442268.978 4       700.186          28.900  
G19  23889421.241 5    640728.55115     -2717.991          34.300  
G24  22975732.374 6   1766249.721 6     -2970.891          41.100  
G25  21471640.635 6  -1514612.842 6      2301.803          37.900  
G29  23455682.412 4    -32761.04314      2266.142          29.200  
> 2020 06 10 20 13 52.4432873  0  8                     
G02  20946158.882 5    507853.567 5      -932.780          32.700  
G05  23312445.636 6  -1096519.080 6      3279.478          36.000  
G06  22239223.712 4   1631723.61114     -2661.908          28.000  
G12  20161904.210 4   -442971.08714       698.228          27.700  
G19  23889945.141 5    643442.791 5     -2714.466          31.300  
G24  22976294.948 6   1769219.092 6     -2971.643          38.200  
G25  21471201.003 6  -1516918.716 6      2305.989          36.600  
G29  23455248.175 4    -35031.35214      2270.288          28.500  
> 2020 06 10 20 13 53.4432873  0  8                     
G02  20946338.580 5    508783.20815      -924.341          33.900  
G05  23311822.189 6  -1099799.92916      3284.471          37.700  
G06  22239725.386 5   1634381.66615     -2651.451          34.200  
G12  20161777.220 5              25       716.400          30.000  
G19  23890457.009 5              25     -2701.000          34.000  
G24  22976861.078 6   1772189.48616     -2966.166          38.300  
G25  21470764.027 6  -1519229.10516      2316.480          37.500  
G29  23454820.194 5              25      2282.800          30.700  
> 2020 06 10 20 13 54.4432873  0  8                     
G02  20946518.974 5    509705.744 5      -926.139          34.800  
G05  23311196.142 6  -1103084.735 6      3279.836          38.400  
G06  22240229.257 6   1637029.948 6     -2651.578          36.300  
G12  20161633.239 5   -444381.227 5       710.565          31.800  
G19  23890970.173 6    648861.965 6     -2704.860          36.500  
G24  22977424.607 6   1775154.843 6     -2970.880          39.600  
G25  21470319.355 6  -1521548.161 6      2316.001          38.900  
G29  23454385.414 5    -39581.410 5      2277.330          32.700  
> 2020 06 10 20 13 55.4432873  0  8                     
G02  20946691.841 5    510639.423 5      -935.331          32.700  
G05  23310576.657 6  -1106355.608 6      3268.023          37.300  
G06  22240729.797 5   1639688.173 5     -2658.983          33.600  
G12  20161499.718 5   -445084.206 5       701.446          32.200  
G19  23891490.199 5    651573.610 5     -2712.575          35.000  
G24  22977992.001 6   1778134.857 6     -2983.082          36.300  
G25  21469880.045 6  -1523857.247 6      2307.934          37.500  
G29  23453958.696 5    -41851.187 5      2267.947          31.400  
> 2020 06 10 20 13 56.4432873  0  8                     
G02  20946870.325 5    511570.218 5      -926.907          32.800  
G05  23309951.398 6  -1109626.942 6      3274.197          36.200  
G06  22241235.954 5   1642341.816 5     -2648.722          33.000  
G12  20161364.019 5   -445790.064 5       709.690          34.400  
G19  23892004.151 6    654280.753 6     -2702.212          35.600  
G24  22978560.215 6   1781115.119 6     -2978.144          36.300  
G25  21469440.957 6  -1526169.953 6      2316.708          37.200  
G29  23453524.704 5    -44123.078 5      2275.027          31.500  
> 2020 06 10 20 13 57.4432873  0  8                     
G02  20947051.534 5    512498.600 5      -929.285          32.800  
G05  23309327.665 5  -1112898.233 5      3269.089          34.700  
G06  22241738.241 5   1644990.951 5     -2648.806          33.500  
G12  20161230.147 6   -446498.134 6       707.205          35.800  
G19  23892514.533 5    656983.320 5     -2702.219          34.200  
G24  22979127.258 6   1784096.827 6     -2984.610          36.200  
G25  21469003.095 6  -1528485.328 6      2314.755          36.500  
G29  23453087.142 5    -46395.657 5      2270.918          32.100  
> 2020 06 10 20 13 58.4432874  0  8                     
G02  20947252.176 5    513430.046 5      -934.697          31.800  
G05  23308739.252 5  -1116163.787 5      3261.481          34.100  
G06  22242274.950 5   1647640.966 5     -2652.335          35.400  
G12  20161129.197 6   -447202.845 6       701.316          36.100  
G19  23893066.231 5    659686.519 5     -2705.049          33.400  
G24  22979730.221 6   1787085.899 6     -2993.930          37.100  
G25  21468590.361 6  -1530797.919 6      2309.338          37.600  
G29  23452681.303 5    -48663.284 5      2263.722          32.700  
> 2020 06 10 20 13 59.4432874  0  8                     
G02  20947431.466 5    514368.773 5      -938.576          29.900  
G05  23308123.793 5  -1119419.923 5      3255.692          35.100  
G06  22242781.015 6   1650296.226 6     -2654.160          35.600  
G12  20160998.503 6   -447900.021 6       697.221          36.800  
G19  23893580.690 5    662394.690 5     -2706.525          31.800  
G24  22980298.042 6   1790085.897 6     -3001.422          37.900  
G25  21468149.980 6  -1533103.272 6      2305.672          38.300  
G29  23452255.613 5    -50921.838 5      2258.107          33.100  
> 2020 06 10 20 14 00.4432874  0  8                     
G02  20947608.017 4    515301.728 4      -934.186          29.000  
G05  23307498.698 5  -1122679.297 5      3256.385          32.300  
G06  22243286.437 6   1652943.752 6     -2647.678          36.200  
G12  20160861.770 6   -448602.881 6       702.012          37.000  
G19  23894087.012 5    665095.216 5     -2700.757          30.500  
G24  22980865.222 6   1793083.681 6     -3000.636          37.000  
G25  21467711.956 6  -1535415.059 6      2311.473          38.400  
G29  23451822.985 5    -53185.112 5      2262.286          32.900  
> 2020 06 10 20 14 01.4432874  0  8                     
G02  20947785.965 4              24      -934.800          26.300  
G05  23306879.798 5  -1125929.423 5      3252.398          33.000  
G06  22243788.761 6   1655594.851 6     -2646.956          36.400  
G12  20160728.533 6   -449300.389 6       700.808          37.000  
G19  23894607.023 5    667799.657 5     -2700.291          30.600  
G24  22981435.599 5   1796090.716 5     -3005.375          35.400  
G25  21467271.732 6  -1537722.874 6      2311.371          37.800  
G29  23451396.551 5    -55442.657 5      2260.328          32.000  
> 2020 06 10 20 14 02.4432874  0  8                     
G02  20947963.515 3              23      -939.500          22.300  
G05  23306263.797 6  -1129180.035 6      3244.281          36.200  
G06  22244293.684 6   1658241.513 6     -2651.183          37.200  
G12  20160595.198 6   -450000.524 6       694.898          36.700  
G19  23895117.642 5    670499.906 5     -2704.769          33.600  
G24  22982014.870 5   1799098.344 5     -3014.315          34.000  
G25  21466829.311 6  -1540033.812 6      2306.013          37.600  
G29  23450968.221 5    -57701.746 5      2253.361          32.600  
> 2020 06 10 20 14 03.4432874  0  8                     
G02  20948165.770 4              24      -936.250          23.500  
G05  23305643.722 6  -1132420.052 6      3241.998          36.600  
G06  22244796.332 6   1660894.289 6     -2647.662          37.500  
G12  20160462.886 5   -450692.563 5       695.807          35.100  
G19  23895633.181 5    673206.157 5     -2701.302          32.700  
G24  22982579.875 5   1802117.271 5     -3017.328          31.200  
G25  21466392.709 6  -1542337.577 6      2308.182          37.400  
G29  23450537.914 5    -59952.072 5      2253.628          30.000  
> 2020 06 10 20 14 04.4432874  0  8                     
G02  20948310.733 4    519067.31624      -941.720          25.000  
G05  23305024.514 6  -1135663.946 6      3238.450          36.300  
G06  22245302.544 6   1663537.148 6     -2646.735          38.000  
G12  20160328.741 6   -451392.334 6       695.095          35.900  
G19  23896146.888 5    675902.95015     -2700.292          29.800  
G24  22983160.136 5   1805133.196 5     -3021.904          29.600  
G25  21465953.076 6  -1544649.951 6      2307.878          39.100  
G29  23450112.671 4    -62208.67714      2251.455          27.400  
> 2020 06 10 20 14 05.4432874  0  8                     
G02  20948497.378 4    520011.47814      -947.255          25.100  
G05  23304410.714 6  -1138895.561 6      3229.412          35.900  
G06  22245805.471 6   1666189.650 6     -2653.323          37.800  
G12  20160199.706 6   -452080.922 6       686.833          35.700  
G19  23896660.008 5    678608.54215     -2706.857          31.200  
G24  22983738.310 4   1808162.302 4     -3031.953          29.200  
G25  21465513.456 6  -1546951.490 6      2300.008          39.600  
G29  23449688.940 4    -64453.44814      2242.168          26.900  
> 2020 06 10 20 14 06.4432874  0  8                     
G02  20948685.671 4    520955.22114      -936.763          26.200  
G05  23303795.262 6  -1142130.394 6      3241.740          36.100  
G06  22246310.044 6   1668836.709 6     -2639.987          37.800  
G12  20160068.719 5   -452773.479 5       699.381          35.400  
G19  23897178.672 5    681309.564 5     -2693.054          32.700  
G24  22984313.335 5   1811189.16515     -3020.332          29.900  
G25  21465076.681 6  -1549257.296 6      2312.541          39.400  
G29  23449253.664 4    -66700.50814      2254.674          23.800  
> 2020 06 10 20 14 07.4432874  0  8                     
G02  20948858.919 4    521894.09314      -944.998          27.000  
G05  23303180.057 6  -1145369.858 6      3232.694          36.400  
G06  22246811.865 6   1671479.066 6     -2649.137          37.800  
G12  20159933.481 6   -453470.087 6       689.521          36.200  
G19  23897690.685 5    684004.832 5     -2701.769          35.000  
G24  22984879.312 5   1814212.335 5     -3030.146          32.300  
G25  21464639.552 6  -1551566.965 6      2302.512          39.800  
G29  23448830.325 4              24      2244.600          26.200  
> 2020 06 10 20 14 08.4432873  0  8                     
G02  20949043.074 4    522845.95614      -952.663          27.400  
G05  23302570.361 6  -1148596.901 6      3226.612          37.200  
G06  22247320.995 6   1674134.311 6     -2656.070          37.200  
G12  20159803.753 6   -454153.298 6       682.130          36.000  
G19  23898204.612 5    686712.374 5     -2707.817          33.200  
G24  22985459.193 5   1817248.656 5     -3037.175          31.800  
G25  21464200.738 6  -1553862.945 6      2294.749          39.500  
G29  23448400.205 4    -71202.25324      2236.920          24.700  
> 2020 06 10 20 14 09.4432873  0  8                     
G02  20949199.170 4    523799.64814      -955.102          26.200  
G05  23301920.914 6  -1151822.754 6      3226.024          36.900  
G06  22247794.271 6   1676791.090 6     -2657.064          36.900  
G12  20159646.266 6   -454834.258 6       680.241          36.600  
G19  23898690.180 5    689420.40615     -2708.471          30.200  
G24  22986023.606 5   1820287.106 5     -3038.709          31.800  
G25  21463732.666 6  -1556156.424 6      2292.587          39.100  
G29  23447955.217 4    -73436.88814      2232.688          25.900  
> 2020 06 10 20 14 10.4432873  0  8                     
G02  20949379.050 4    524752.32414      -952.332          27.300  
G05  23301302.148 6  -1155051.886 6      3228.998          35.800  
G06  22248298.227 6   1679445.604 6     -2654.904          36.800  
G12  20159512.264 6   -455516.785 6       681.775          36.900  
G19  23899204.329 4    692125.69914     -2705.269          29.100  
G24  22986591.118 5   1823323.644 5     -3037.321          31.300  
G25  21463294.974 6  -1558450.895 6      2293.481          38.800  
G29  23447525.320 4    -75672.02214      2235.950          23.900  
> 2020 06 10 20 14 11.4432873  0  8                     
G02  20949559.260 4    525706.61114      -951.319          28.300  
G05  23300695.102 6  -1158278.947 6      3230.480          37.000  
G06  22248806.709 6   1682102.219 6     -2653.175          37.000  
G12  20159382.488 6   -456196.280 6       682.335          36.700  
G19  23899724.503 5    694832.48125     -2703.074          32.100  
G24  22987169.152 5   1826363.428 5     -3037.096          30.900  
G25  21462859.409 6  -1560741.940 6      2293.812          39.200  
G29  23447099.348 4    -77906.10614      2235.148          25.200  
> 2020 06 10 20 14 12.4432873  0  8                     
G02  20949730.805 4    526651.88114      -947.763          26.000  
G05  23300079.093 5  -1161515.045 5      3233.903          35.000  
G06  22249311.025 6   1684749.932 6     -2649.946          35.500  
G12  20159256.339 6   -456883.844 6       685.133          35.500  
G19  23900220.724 4    697530.23414     -2699.029          28.700  
G24  22987752.612 5   1829395.269 5     -3034.437          30.000  
G25  21462424.475 6  -1563040.749 6      2296.170          38.000  
G29  23446658.118 3    -80144.53513      2237.770          23.100  
> 2020 06 10 20 14 13.4432873  0  8                     
G02  20949925.037 4    527604.93314      -951.256          23.800  
G05  23299462.686 5  -1164744.347 5      3232.525          34.700  
G06  22249814.343 5              25     -2648.450          33.300  
G12  20159122.299 5   -457563.97115       682.481          34.700  
G19  23900763.614 4    700233.82914     -2702.287          27.800  
G24  22988332.377 4              24     -3033.500          28.700  
G25  21461986.444 6  -1565331.995 6      2294.146          36.900  
G29  23446242.273 3    -82381.74313      2236.947          22.600  
> 2020 06 10 20 14 14.4432873  0  8                     
G02  20950092.851 4    528555.62514      -948.576          26.800  
G05  23298842.646 5  -1167978.35815      3233.852          35.300  
G06  22250317.625 6   1690061.693 6     -2650.045          36.400  
G12  20158995.717 6   -458247.826 6       684.179          36.700  
G19  23901265.697 4    702932.92714     -2697.922          27.800  
G24  22988905.211 5   1835476.26425     -3036.233          30.100  
G25  21461552.575 6  -1567626.866 6      2295.216          38.600  
G29  23445821.894 3    -84615.16913      2232.785          23.200  
> 2020 06 10 20 14 15.4432873  0  8                     
G02  20950283.997 4    529505.51914      -956.305          27.500  
G05  23298230.348 6  -1171209.73526      3226.037          36.100  
G06  22250822.953 6   1692714.373 6     -2657.868          37.000  
G12  20158865.485 6   -458929.282 6       676.314          36.800  
G19  23901777.321 4    705633.90624     -2706.015          29.400  
G24  22989482.789 5   1838513.99715     -3043.827          33.600  
G25  21461114.456 6  -1569919.653 6      2287.652          39.200  
G29  23445394.268 4    -86848.37114      2230.640          24.100  
> 2020 06 10 20 14 16.4432873  0  8                     
G02  20950456.950 4    530467.48624      -964.081          28.400  
G05  23297620.542 6  -1174430.40026      3218.612          38.700  
G06  22251331.073 6   1695377.431 6     -2664.993          36.000  
G12  20158739.844 6   -459600.359 6       668.894          37.200  
G19  23902298.332 4    708345.62214     -2713.209          29.200  
G24  22990061.960 5   1841562.87125     -3050.497          34.500  
G25  21460679.730 6  -1572202.372 6      2280.689          38.900  
G29  23444962.839 4    -89073.98214      2221.825          26.400  
> 2020 06 10 20 14 17.4432873  0  8                     
G02  20950645.885 4    531430.90314      -965.665          25.200  
G05  23297007.233 6  -1177650.26716      3216.970          36.500  
G06  22251838.988 6   1698041.700 6     -2667.036          36.700  
G12  20158609.801 6   -460269.948 6       666.758          36.500  
G19  23902802.350 5    711057.993 5     -2715.084          29.500  
G24  22990639.128 5   1844612.33725     -3052.498          32.000  
G25  21460244.797 6  -1574483.814 6      2278.657          38.800  
G29  23444552.490 4    -91297.00414      2220.187          24.500  
> 2020 06 10 20 14 18.4432873  0  8                     
G02  20950825.566 4    532404.18414      -975.318          27.700  
G05  23296394.863 6  -1180859.294 6      3208.322          37.100  
G06  22252342.145 6   1700716.632 6     -2676.266          36.400  
G12  20158485.792 6   -460928.773 6       657.859          37.200  
G19  23903323.495 5    713780.489 5     -2723.523          31.400  
G24  22991220.231 5   1847672.05115     -3060.203          31.500  
G25  21459812.002 6  -1576754.813 6      2270.311          38.900  
G29  23444131.686 4    -93507.21414      2202.058          24.400  
> 2020 06 10 20 14 19.4432873  0  8                     
G02  20951003.615 4              24      -966.550          24.800  
G05  23295785.056 6  -1184069.484 6      3219.137          36.300  
G06  22252856.261 5   1703391.012 5     -2666.087          34.700  
G12  20158355.354 6   -461589.169 6       669.132          35.500  
G19  23903840.608 4    716502.57214     -2713.588          28.800  
G24  22991811.093 4   1850729.44114     -3047.668          29.300  
G25  21459382.072 6  -1579027.883 6      2282.394          37.900  
G29  23443714.946 3              23      2226.400          23.100  
> 2020 06 10 20 14 20.4432872  0  8                     
G02  20951157.462 4    534356.46624      -979.012          25.200  
G05  23295145.053 6  -1187287.939 6      3204.666          36.800  
G06  22253333.584 6   1706057.811 6     -2680.920          36.500  
G12  20158199.215 6   -462258.220 6       655.659          36.900  
G19  23904328.124 5    719217.61725     -2729.403          29.700  
G24  22992354.670 5   1853776.740 5     -3060.277          32.300  
G25  21458915.348 6  -1581310.348 6      2269.360          39.000  
G29  23443258.716 4              24      2208.900          25.600  
> 2020 06 10 20 14 21.4432872  0  7                     
G02  20951343.496 4    535337.46614      -975.657          25.200  
G05  23294533.040 6  -1190491.190 6      3208.561          37.200  
G06  22253843.394 6   1708740.989 6     -2678.301          35.600  
G12  20158073.466 6   -462912.211 6       659.438          37.100  
G24  22992937.630 5   1856837.454 5     -3054.528          32.900  
G25  21458483.211 6  -1583578.651 6      2274.158          38.700  
G29  23442835.872 4   -100153.56824      2218.797          24.300  
> 2020 06 10 20 14 22.4432872  0  8                     
G02  20951534.568 4    536307.54714      -971.157          26.700  
G05  23293921.568 6  -1193704.811 6      3212.625          36.500  
G06  22254351.047 6   1711414.413 6     -2674.491          35.900  
G12  20157951.854 6   -463576.831 6       663.570          36.500  
G19  23905383.062 4      1206.70624     -2721.146          24.200  
G24  22993517.233 5   1859886.448 5     -3049.973          32.200  
G25  21458052.213 6  -1585858.147 6      2278.464          38.500  
G29  23442412.669 4   -102378.49414      2224.991          24.000  
> 2020 06 10 20 14 23.4432872  0  8                     
G02  20951733.645 4    537285.59314      -981.734          26.800  
G05  23293313.303 6  -1196910.657 6      3202.847          37.000  
G06  22254859.809 5   1714095.461 5     -2684.293          35.400  
G12  20157824.457 6   -464233.451 6       652.842          36.900  
G19  23905904.115 4      3932.39014     -2729.534          25.800  
G24  22994095.247 5   1862943.622 5     -3060.514          31.800  
G25  21457617.528 6  -1588129.713 6      2267.785          38.700  
G29  23441991.175 3   -104598.79213      2215.588          23.300  
> 2020 06 10 20 14 24.4432872  0  8                     
G02  20951913.030 4    538267.96314      -982.295          26.700  
G05  23292702.735 6  -1200112.440 6      3202.766          37.600  
G06  22255371.065 6   1716780.422 6     -2684.615          35.700  
G12  20157698.953 6   -464885.423 6       651.903          37.100  
G19  23906400.381 4      6664.93114     -2731.943          25.600  
G24  22994678.153 5   1866005.626 5     -3061.395          31.700  
G25  21457190.733 6  -1590396.534 6      2266.792          39.400  
G29  23441586.565 3   -106811.81813      2212.682          23.100  
> 2020 06 10 20 14 25.4432871  0  8                     
G02  20952061.868 4    539249.76514      -982.346          25.400  
G05  23292064.918 6  -1203315.284 6      3202.424          37.100  
G06  22255853.872 6   1719464.416 6     -2684.368          35.900  
G12  20157545.600 6   -465537.953 6       652.187          36.600  
G19  23906894.580 4      9395.85214     -2730.596          27.000  
G24  22995231.711 5   1869066.983 5     -3061.343          32.100  
G25  21456725.597 6  -1592663.985 6      2267.468          38.400  
G29  23441104.340 4   -109023.59314      2209.299          24.400  
> 2020 06 10 20 14 26.4432871  0  8                     
G02  20952252.438 4    540230.38514      -977.788          25.200  
G05  23291450.545 6  -1206517.970 6      3205.160          37.600  
G06  22256363.421 6   1722147.697 6     -2680.582          35.600  
G12  20157423.487 6   -466191.479 6       656.498          36.500  
G19  23907417.020 5     12126.45025     -2728.057          31.200  
G24  22995814.709 5   1872127.246 5     -3057.110          32.400  
G25  21456295.896 6  -1594933.326 6      2272.998          38.900  
G29  23440698.623 4   -111235.10414      2218.126          24.500  
> 2020 06 10 20 14 27.4432871  0  8                     
G02  20952449.710 4    541204.13714      -975.546          24.800  
G05  23290846.172 6  -1209726.402 6      3206.775          36.900  
G06  22256874.875 6   1724824.325 6     -2677.905          36.900  
G12  20157297.582 6   -466852.338 6       659.835          36.600  
G19  23907942.265 5     14850.89925     -2725.948          30.200  
G24  22996398.114 5   1875179.886 5     -3053.365          30.200  
G25  21455860.306 6  -1597211.348 6      2277.666          38.400  
G29  23440271.427 4   -113460.09514      2225.181          24.000  
> 2020 06 10 20 14 28.4432871  0  8                     
G02  20952630.558 4    542187.32714      -988.804          25.900  
G05  23290235.868 6  -1212925.654 6      3193.696          37.200  
G06  22257381.898 6   1727509.749 6     -2691.349          36.500  
G12  20157173.242 6   -467504.983 6       647.140          37.500  
G19  23908460.380 4     17584.33714     -2739.693          27.200  
G24  22996977.686 5   1878240.288 5     -3065.265          30.700  
G25  21455427.179 6  -1599482.196 6      2265.611          38.600  
G29  23439853.290 4   -115679.13314      2214.014          26.100  
> 2020 06 10 20 14 29.4432871  0  8                     
G02  20952812.429 4    543178.14014      -991.726          25.900  
G05  23289621.790 6  -1216117.914 6      3192.655          36.800  
G06  22257892.941 6   1730203.327 6     -2694.533          35.600  
G12  20157049.924 6   -468150.138 6       644.465          37.800  
G19  23908977.419 5     20326.276 5     -2741.704          30.900  
G24  22997561.579 5   1881306.675 5     -3065.873          30.800  
G25  21454997.474 6  -1601746.043 6      2263.164          38.300  
G29  23439432.278 4   -117891.915 4      2213.053          27.300  
> 2020 06 10 20 14 30.4432870  0  8                     
G02  20952973.098 4    544170.11514      -993.019          26.800  
G05  23288990.407 6  -1219310.425 6      3192.140          37.200  
G06  22258378.885 6   1732898.366 6     -2695.848          36.000  
G12  20156898.509 6   -468794.091 6       642.806          37.700  
G19  23909469.658 5     23068.547 5     -2742.446          30.100  
G24  22998118.274 5   1884372.827 5     -3066.755          30.900  
G25  21454537.573 6  -1604008.601 6      2261.433          38.200  
G29  23438970.578 4   -120104.284 4      2211.683          28.300  
> 2020 06 10 20 14 31.4432870  0  8                     
G02  20953163.971 4    545161.68814      -988.505          26.300  
G05  23288380.235 6  -1222503.753 6      3195.800          37.700  
G06  22258890.835 6   1735592.625 6     -2691.951          36.300  
G12  20156773.101 6   -469438.217 6       646.253          37.700  
G19  23909994.500 5     25809.609 5     -2738.364          29.700  
G24  22998697.378 5   1887438.749 5     -3063.714          33.000  
G25  21454104.277 6  -1606271.356 6      2264.907          38.000  
G29  23438553.772 4   -122316.776 4      2214.744          28.000  
> 2020 06 10 20 14 32.4432870  0  8                     
G02  20953339.099 4              24      -986.300          24.800  
G05  23287769.306 5  -1225698.21115      3197.678          34.900  
G06  22259403.230 5   1738285.98015     -2690.366          33.200  
G12  20156653.233 5   -470082.882 5       647.348          35.000  
G19  23910496.401 4     28549.28314     -2737.877          25.300  
G24  22999286.219 5   1890503.93915     -3062.411          30.300  
G25  21453674.724 6  -1608534.610 6      2266.062          35.900  
G29  23438143.105 4   -124529.06414      2207.575          24.300  
> 2020 06 10 20 14 33.4432870  0  8                     
G02  20953546.067 4              24      -976.450          24.500  
G05  23287162.038 6  -1228906.67616      3211.656          36.300  
G06  22259914.487 5   1740964.895 5     -2675.190          34.200  
G12  20156525.333 6   -470741.330 6       661.658          35.500  
G19  23911030.143 4     31276.10114     -2721.490          28.100  
G24  22999865.529 5   1893556.66015     -3050.228          30.500  
G25  21453241.935 6  -1610811.700 6      2280.258          36.900  
G29  23437725.905 4              24      2227.550          24.900  
> 2020 06 10 20 14 34.4432870  0  8                     
G02  20953724.297 4    548137.79924      -991.674          24.900  
G05  23286554.512 6  -1232109.492 6      3193.652          37.700  
G06  22260429.383 6   1743648.629 6     -2692.528          36.400  
G12  20156405.869 6   -471393.918 6       643.176          37.500  
G19  23911548.637 5     34005.341 5     -2737.830          33.100  
G24  23000441.284 5   1896615.240 5     -3068.443          31.500  
G25  21452808.887 6  -1613082.644 6      2261.354          39.100  
G29  23437283.264 4   -128951.98224      2210.012          25.700  
> 2020 06 10 20 14 35.4432869  0  8                     
G02  20953890.272 4    549133.75314      -995.618          24.600  
G05  23285917.643 6  -1235299.299 6      3190.295          37.300  
G06  22260910.141 6   1746344.929 6     -2695.914          36.000  
G12  20156250.466 6   -472032.533 6       638.585          36.800  
G19  23912047.082 5     36746.302 5     -2740.146          30.500  
G24  23000994.891 5   1899688.268 5     -3073.338          31.400  
G25  21452349.795 6  -1615339.491 6      2256.586          38.800  
G29  23436835.864 4   -131157.25314      2204.420          25.500  
> 2020 06 10 20 14 36.4432869  0  8                     
G02  20954068.022 4    550129.48814      -997.691          24.900  
G05  23285305.740 6  -1238489.907 6      3189.003          36.400  
G06  22261423.359 6   1749040.865 6     -2697.861          36.700  
G12  20156133.221 6   -472670.746 6       635.904          37.200  
G19  23912560.600 5     39486.205 5     -2741.318          31.700  
G24  23001591.751 5   1902761.884 5     -3075.914          31.600  
G25  21451924.063 6  -1617595.263 6      2253.123          39.400  
G29  23436417.627 4   -133360.48414      2200.734          25.700  
> 2020 06 10 20 14 37.4432869  0  8                     
G02  20954273.764 3    551129.05713     -1000.591          22.900  
G05  23284701.142 6  -1241677.492 6      3186.736          35.600  
G06  22261936.987 6   1751740.625 6     -2701.030          35.900  
G12  20156010.989 6   -473304.204 6       631.792          37.000  
G19  23913079.325 4     42229.002 4     -2743.584          28.800  
G24  23002174.332 5   1905840.024 5     -3079.699          30.900  
G25  21451492.746 6  -1619845.644 6      2248.444          38.800  
G29  23436021.086 4   -135559.32314      2196.672          24.600  
> 2020 06 10 20 14 38.4432868  0  8                     
G02  20954428.517 4    552132.81514     -1007.809          23.900  
G05  23284065.943 6  -1244859.818 6      3179.244          35.700  
G06  22262420.014 6   1754446.229 6     -2709.443          37.100  
G12  20155862.653 6   -473931.084 6       623.049          37.500  
G19  23913576.142 5     44976.934 5     -2751.339          30.400  
G24  23002730.208 5   1908924.541 5     -3087.797          30.600  
G25  21451037.122 6  -1622089.089 6      2239.603          39.400  
G29  23435543.577 4   -137751.57414      2188.981          24.200  
> 2020 06 10 20 14 39.4432868  0  8                     
G02  20954618.732 4    553139.38614     -1005.855          24.000  
G05  23283461.108 6  -1248043.794 6      3185.832          36.800  
G06  22262935.503 6   1757152.662 6     -2706.859          35.800  
G12  20155740.784 6   -474557.803 6       627.095          37.400  
G19  23914094.330 3     47727.52713     -2751.742          23.300  
G24  23003317.048 5   1912007.101 5     -3080.313          32.800  
G25  21450612.463 6  -1624332.195 6      2243.288          39.200  
G29  23435129.710 4   -139943.64514      2193.240          27.100  
> 2020 06 10 20 14 40.4432868  0  7                     
G02  20954809.967 4    554153.06414     -1018.947          25.800  
G05  23282855.495 6  -1251222.608 6      3173.925          37.700  
G06  22263452.313 5   1759868.263 5     -2721.012          35.400  
G12  20155621.734 6   -475176.744 6       613.755          37.900  
G24  23003907.007 5   1915094.137 5     -3091.732          33.800  
G25  21450186.125 6  -1626567.207 6      2229.866          39.300  
G29  23434725.257 4   -142129.31514      2181.018          28.100  
> 2020 06 10 20 14 41.4432867  0  8                     
G02  20954966.536 3              23     -1008.150          23.300  
G05  23282221.810 6  -1254398.251 6      3182.544          36.600  
G06  22263936.555 6   1762586.406 6     -2710.598          35.800  
G12  20155479.409 6   -475792.817 6       623.056          37.000  
G19  23915117.566 4      1218.01124     -2746.651          28.500  
G24  23004464.098 5   1918184.340 5     -3083.476          32.300  
G25  21449727.220 6  -1628799.698 6      2239.740          38.700  
G29  23434266.952 4   -144312.33314      2189.992          27.500  
> 2020 06 10 20 14 42.4432867  0  8                     
G02  20955160.746 4              24     -1011.450          24.000  
G05  23281615.275 6  -1257581.94216      3180.380          36.200  
G06  22264457.239 6   1765294.628 6     -2710.838          36.200  
G12  20155354.341 6   -476418.057 6       622.454          36.900  
G19  23915646.345 4      3967.14714     -2751.720          28.700  
G24  23005047.739 5   1921266.33515     -3085.360          33.000  
G25  21449303.558 6  -1631041.624 6      2239.208          39.600  
G29  23433856.781 4   -146504.98614      2189.541          26.100  
> 2020 06 10 20 14 43.4432867  0  8                     
G02  20955367.286 4    557210.17324     -1019.387          25.300  
G05  23281013.875 6  -1260756.649 6      3170.793          36.400  
G06  22264972.865 6   1768010.945 6     -2719.673          36.600  
G12  20155238.304 6   -477034.626 6       612.961          36.300  
G19  23916167.067 4      6724.24114     -2761.531          29.400  
G24  23005645.208 5   1924358.049 5     -3095.702          32.300  
G25  21448879.635 6  -1633275.156 6      2230.008          39.800  
G29  23433442.451 4   -148688.77214      2180.115          25.800  
> 2020 06 10 20 14 44.4432866  0  8                     
G02  20955521.697 4    558225.84914     -1015.010          26.400  
G05  23280375.334 6  -1263932.393 6      3175.973          36.600  
G06  22265459.746 6   1770725.517 6     -2714.295          36.600  
G12  20155091.723 6   -477652.373 6       618.041          36.300  
G19  23916656.646 4      9480.39814     -2754.451          25.300  
G24  23006201.041 5   1927449.126 5     -3091.159          32.100  
G25  21448425.467 6  -1635510.002 6      2234.793          39.700  
G29  23433002.972 4   -150874.06014      2185.243          24.400  
> 2020 06 10 20 14 45.4432866  0  7                     
G02  20955717.020 4    559244.16524     -1016.303          26.000  
G05  23279774.409 6  -1267104.890 6      3174.086          36.900  
G06  22265974.348 6   1773442.975 6     -2715.405          37.500  
G12  20154974.662 6   -478266.802 6       616.426          36.200  
G19  23917189.235 5     12238.06215     -2755.923          30.300  
G24  23006784.595 5   1930543.710 5     -3092.522          30.700  
G25  21447996.622 6  -1637741.675 6      2234.216          39.200  
> 2020 06 10 20 14 46.4432865  0  8                     
G02  20955865.152 4    560257.88324     -1012.853          25.800  
G05  23279140.082 6  -1270281.304 6      3176.975          37.500  
G06  22266459.446 6   1776155.974 6     -2712.383          36.600  
G12  20154823.901 6   -478886.297 6       620.796          36.300  
G19  23917685.726 5     14991.607 5     -2753.243          31.200  
G24  23007348.839 5   1933633.034 5     -3087.516          30.700  
G25  21447543.070 6  -1639979.311 6      2239.612          40.000  
G29  23432137.664 3              23      2192.350          22.300  
> 2020 06 10 20 14 47.4432865  0  8                     
G02  20956072.899 3    561273.54513     -1020.233          23.200  
G05  23278535.692 6  -1273454.906 6      3169.029          38.200  
G06  22266977.179 6   1778871.384 6     -2719.852          37.000  
G12  20154708.172 6   -479504.706 6       614.681          36.400  
G19  23918215.151 5     17748.239 5     -2761.386          32.900  
G24  23007934.025 4   1936722.387 4     -3092.628          29.100  
G25  21447116.757 6  -1642217.466 6      2235.244          39.400  
G29  23431737.732 4     -3165.26324      2187.241          24.300  
> 2020 06 10 20 14 48.4432865  0  8                     
G02  20956262.753 3    562297.05713     -1024.140          22.700  
G05  23277929.297 6  -1276619.446 6      3164.302          36.400  
G06  22267496.805 6   1781595.016 6     -2724.490          37.200  
G12  20154594.037 6   -480116.161 6       611.052          36.000  
G19  23918733.578 5     20513.760 5     -2766.351          33.200  
G24  23008518.406 5   1939817.694 5     -3095.070          29.500  
G25  21446691.737 6  -1644450.097 6      2232.762          39.200  
G29  23431302.519 4     -5350.69214      2186.293          25.100  
> 2020 06 10 20 14 49.4432864  0  8                     
G02  20956423.440 3              23     -1016.950          20.300  
G05  23277301.829 6  -1279788.415 6      3171.560          36.700  
G06  22267985.764 6   1784314.530 6     -2716.654          36.500  
G12  20154445.638 6   -480732.576 6       619.511          37.300  
G19  23919228.832 5     23275.486 5     -2759.089          30.900  
G24  23009074.219 5   1942907.188 5     -3086.360          30.000  
G25  21446239.048 6  -1646688.946 6      2242.421          39.400  
G29  23430849.231 4     -7542.96314      2196.915          23.500  
> 2020 06 10 20 14 50.4432864  0  8                     
G02  20956619.223 4    564337.55924     -1026.177          24.200  
G05  23276696.567 6  -1282954.151 6      3163.050          36.100  
G06  22268501.126 6   1787037.582 6     -2726.399          36.400  
G12  20154330.536 6   -481345.941 6       609.679          37.000  
G19  23919749.591 5     26040.675 5     -2768.030          32.300  
G24  23009665.129 5   1945999.118 5     -3095.293          31.500  
G25  21445813.061 6  -1648925.196 6      2232.256          39.500  
G29  23430440.332 4     -9740.22714      2193.057          25.300  
> 2020 06 10 20 14 51.4432864  0  8                     
G02  20956806.597 4    565359.92214     -1019.198          23.600  
G05  23276094.887 6  -1286121.985 6      3172.210          37.100  
G06  22269021.270 6   1789759.818 6     -2718.109          36.200  
G12  20154212.421 6   -481959.137 6       616.733          37.000  
G19  23920281.126 5     28803.975 5     -2758.686          33.000  
G24  23010253.325 5   1949090.712 5     -3088.103          30.800  
G25  21445385.561 6  -1651160.470 6      2238.412          39.800  
G29  23430031.119 4    -11930.11114      2192.186          26.800  
> 2020 06 10 20 14 52.4432863  0  8                     
G02  20956989.463 3    566374.86313     -1014.882          22.600  
G05  23275460.219 6  -1289296.982 6      3173.893          35.600  
G06  22269511.423 5   1792474.884 5     -2716.105          35.100  
G12  20154063.417 6   -482578.244 6       617.595          35.500  
G19  23920770.680 5     31559.308 5     -2756.023          30.700  
G24  23010816.928 5   1952176.943 5     -3088.055          30.700  
G25  21444927.171 6  -1653401.042 6      2238.901          38.800  
G29  23429572.429 4    -14124.38314      2192.687          24.400  
> 2020 06 10 20 14 53.4432863  0  8                     
G02  20957181.627 3              23     -1004.950          22.600  
G05  23274856.434 5  -1292473.36915      3186.233          33.800  
G06  22270020.168 5   1795189.159 5     -2704.507          34.300  
G12  20153941.998 5   -483196.844 5       627.822          34.000  
G19  23921298.012 4              24     -2740.550          28.100  
G24  23011403.919 4              24     -3073.550          26.700  
G25  21444502.362 6  -1655641.17616      2248.628          36.800  
G29  23429159.313 3              23      2204.550          22.600  
> 2020 06 10 20 14 54.4432863  0  8                     
G02  20957374.525 4    568396.549 4     -1007.530          25.100  
G05  23274248.287 6  -1295659.834 6      3183.374          37.000  
G06  22270536.242 6   1797892.073 6     -2706.260          36.400  
G12  20153829.408 6   -483825.864 6       625.092          36.900  
G19  23921821.281 5     37059.606 5     -2744.682          33.000  
G24  23011983.249 5   1958347.200 5     -3081.687          31.000  
G25  21444076.488 6  -1657890.121 6      2245.338          39.400  
G29  23428759.821 4    -18519.14024      2202.295          24.000  
> 2020 06 10 20 14 55.4432862  0  8                     
G02  20957535.435 4    569403.501 4     -1003.627          26.800  
G05  23273615.346 6  -1298844.503 6      3187.863          36.400  
G06  22271022.127 5   1800596.628 5     -2700.842          35.300  
G12  20153680.632 6   -484452.001 6       629.296          35.900  
G19  23922317.359 4     39802.365 4     -2738.953          29.300  
G24  23012538.086 5   1961428.125 5     -3078.256          31.200  
G25  21443615.029 6  -1660136.359 6      2249.168          39.500  
G29  23428300.459 4    -20722.72014      2204.752          26.000  
> 2020 06 10 20 14 56.4432862  0  8                     
G02  20957729.576 4    570408.40014     -1009.851          26.900  
G05  23273004.845 6  -1302030.854 6      3182.403          36.800  
G06  22271534.948 6   1803299.098 6     -2706.730          35.700  
G12  20153556.394 6   -485079.159 6       622.536          36.700  
G19  23922834.077 5     42542.441 5     -2743.709          33.600  
G24  23013132.450 5   1964508.938 5     -3085.448          32.400  
G25  21443190.399 6  -1662383.234 6      2241.944          40.500  
G29  23427884.823 4    -22927.43714      2203.557          23.500  
> 2020 06 10 20 14 57.4432862  0  8                     
G02  20957913.302 4    571420.51114     -1014.017          25.300  
G05  23272401.915 6  -1305211.875 6      3180.204          36.700  
G06  22272057.738 6   1806008.164 6     -2710.912          35.500  
G12  20153444.524 6   -485699.090 6       617.974          36.300  
G19  23923354.469 5     45288.146 5     -2747.199          31.900  
G24  23013714.300 5   1967596.348 5     -3088.772          31.700  
G25  21442764.946 6  -1664622.117 6      2236.550          39.700  
G29  23427463.268 4    -25127.38514      2197.823          24.000  
> 2020 06 10 20 14 58.4432861  0  8                     
G02  20958078.332 4    572437.80414     -1020.943          25.200  
G05  23271767.098 6  -1308390.39716      3176.062          37.200  
G06  22272539.649 6   1808722.481 6     -2717.841          36.000  
G12  20153295.371 6   -486313.689 6       611.507          37.100  
G19  23923848.971 5     48038.294 5     -2753.454          30.700  
G24  23014270.859 5   1970687.57515     -3092.317          32.200  
G25  21442309.405 6  -1666855.103 6      2229.810          39.000  
G29  23427010.126 4    -27325.13614      2196.425          25.900  
> 2020 06 10 20 14 59.4432861  0  8                     
G02  20958274.148 5    573458.950 5     -1016.445          30.000  
G05  23271162.769 6  -1311567.360 6      3183.537          36.200  
G06  22273055.044 5   1811441.557 5     -2715.676          34.900  
G12  20153177.305 6   -486924.957 6       615.769          37.900  
G19  23924376.958 5     50792.714 5     -2750.840          32.000  
G24  23014859.104 5   1973778.159 5     -3084.034          34.100  
G25  21441882.853 6  -1669084.732 6      2234.045          37.700  
G29  23426593.167 4    -29518.21214      2192.519          24.800  
> 2020 06 10 20 15 00.4432861  0  8                     
G02  20958468.064 5    574469.203 5     -1009.643          33.800  
G05  23270558.037 6  -1314759.175 6      3196.206          36.600  
G06  22273567.339 5   1814152.777 5     -2712.301          35.400  
G12  20153060.336 6   -487546.875 6       622.633          38.300  
G19  23924896.148 5     53538.62115     -2746.740          32.800  
G24  23015444.548 6   1976852.804 6     -3069.245          36.700  
G25  21441459.196 6  -1671324.638 6      2240.203          38.200  
G29  23426178.503 4    -31714.567 4      2199.383          29.400  
> 2020 06 10 20 15 01.4432860  0  8                     
G02  20958633.515 6    575483.895 6     -1017.561          35.700  
G05  23269918.545 6  -1317953.047 6      3193.503          36.900  
G06  22274059.564 6   1816872.254 6     -2723.929          37.800  
G12  20152914.003 6   -488164.558 6       615.061          38.100  
G19  23925390.771 5     56291.55415     -2756.766          30.900  
G24  23016000.629 6   1979923.220 6     -3069.657          36.900  
G25  21441005.276 6  -1673559.239 6      2231.754          38.900  
G29  23425721.285 5    -33910.260 5      2194.809          31.900  
> 2020 06 10 20 15 02.4432860  0  8                     
G02  20958827.513 5    576501.731 5     -1019.962          35.200  
G05  23269312.098 6  -1321149.51516      3196.426          37.100  
G06  22274575.540 6   1819598.228 6     -2729.888          36.800  
G12  20152793.819 6   -488779.508 6       613.132          37.400  
G19  23925926.833 4     59050.43714     -2763.176          28.700  
G24  23016584.058 5   1982989.302 5     -3062.812          35.100  
G25  21440574.507 6  -1675791.19416      2229.551          38.500  
G29  23425300.110 5    -36106.616 5      2196.282          32.700  
> 2020 06 10 20 15 03.4432860  0  8                     
G02  20959020.294 5    577524.311 5     -1020.129          33.800  
G05  23268704.433 6  -1324346.270 6      3201.382          40.500  
G06  22275098.692 6   1822332.782 6     -2733.950          36.900  
G12  20152677.813 6   -489390.261 6       613.491          35.500  
G19  23926430.798 4     61817.44614     -2766.681          28.600  
G24  23017164.171 6   1986049.93816     -3055.592          37.500  
G25  21440156.610 6  -1678018.51016      2229.494          38.500  
G29  23424887.909 5    -38304.34915      2202.973          31.200  
> 2020 06 10 20 15 04.4432860  0  8                     
G02  20959212.333 5    578542.293 5     -1018.347          33.700  
G05  23268093.628 6  -1327551.499 6      3206.552          41.100  
G06  22275621.102 5   1825066.64515     -2736.603          33.700  
G12  20152559.567 5   -490006.605 5       616.802          35.100  
G19  23926966.400 5     64584.12715     -2769.118          34.800  
G24  23017744.441 6   1989099.056 6     -3044.697          39.900  
G25  21439730.477 6  -1680251.176 6      2233.727          38.800  
G29  23424467.772 5    -40510.83215      2209.921          31.200  
> 2020 06 10 20 15 05.4432859  0  8                     
G02  20959377.673 5    579561.489 5     -1019.891          32.000  
G05  23267451.327 6  -1330759.037 6      3208.600          39.400  
G06  22276105.721 5   1827806.530 5     -2742.619          32.700  
G12  20152410.725 5   -490623.407 5       616.828          33.100  
G19  23927465.409 6     67356.98626     -2775.673          35.700  
G24  23018293.215 6   1992139.332 6     -3036.584          40.500  
G25  21439274.048 6  -1682485.523 6      2234.810          38.900  
G29  23424028.431 4    -42724.21614      2216.578          25.800  
> 2020 06 10 20 15 06.4432859  0  8                     
G02  20959564.006 4    580579.376 4     -1014.574          28.100  
G05  23266839.613 6  -1333970.900 6      3216.922          38.400  
G06  22276632.918 6   1830549.045 6     -2740.898          35.700  
G12  20152299.364 5   -491242.973 5       623.827          32.700  
G19  23927994.405 5     70133.41715     -2775.440          32.700  
G24  23018869.579 6   1995169.889 6     -3022.141          41.000  
G25  21438848.505 6  -1684723.869 6      2243.182          38.100  
G29  23423587.598 4    -44946.19814      2229.674          26.300  
> 2020 06 10 20 15 07.4432859  0  8                     
G02  20959766.195 5    581596.353 5     -1022.340          31.200  
G05  23266228.764 6  -1337186.974 6      3211.563          36.600  
G06  22277153.786 5   1833294.606 5     -2753.133          32.400  
G12  20152177.777 5   -491865.163 5       617.740          32.500  
G19  23928530.862 5     72913.79015     -2788.918          29.800  
G24  23019443.210 6   1998189.640 6     -3020.834          40.500  
G25  21438419.930 5  -1686966.125 5      2238.767          35.400  
G29  23423163.220 4    -47178.20314      2230.518          28.700  
> 2020 06 10 20 15 08.4432859  0  8                     
G02  20959960.780 5    582622.959 5     -1024.584          33.100  
G05  23265620.805 5  -1340394.421 5      3209.604          35.400  
G06  22277680.542 5   1836053.925 5     -2758.514          33.900  
G12  20152056.381 5   -492479.653 5       617.377          33.100  
G19  23929067.210 4     75710.55314     -2800.097          27.000  
G24  23020020.930 6   2001210.708 6     -3015.893          40.200  
G25  21437996.043 5  -1689202.935 5      2240.928          33.700  
G29  23422741.732 5    -49408.94025      2236.517          31.700  
> 2020 06 10 20 15 09.4432858  0  8                     
G02  20960128.754 5    583643.032 5     -1020.505          33.400  
G05  23264977.240 6  -1343608.747 6      3214.363          35.700  
G06  22278176.788 6   1838809.223 6     -2756.879          37.000  
G12  20151911.671 5   -493102.280 5       622.669          33.000  
G19  23929555.962 4     78506.47214     -2792.856          28.500  
G24  23020563.344 6   2004219.391 6     -3006.484          40.700  
G25  21437541.647 5  -1691449.850 5      2247.445          34.600  
G29  23422280.142 5    -51653.23925      2246.175          33.300  
> 2020 06 10 20 15 10.4432858  0  8                     
G02  20960321.180 5    584662.939 5     -1018.632          33.500  
G05  23264364.124 5  -1346824.986 5      3218.408          33.200  
G06  22278700.485 6   1841566.974 6     -2758.054          37.300  
G12  20151788.116 5   -493726.228 5       625.744          33.800  
G19  23930089.252 4     81301.88614     -2796.913          26.500  
G24  23021134.109 6   2007221.812 6     -2997.903          39.900  
G25  21437114.103 5  -1693699.148 5      2251.694          34.800  
G29  23421858.893 5    -53903.29825      2254.299          33.000  
> 2020 06 10 20 15 11.4432858  0  8                     
G02  20960515.670 5    585683.308 5     -1018.171          34.200  
G05  23263750.973 5  -1350043.155 5      3221.462          33.700  
G06  22279222.048 5   1844328.379 5     -2760.666          34.600  
G12  20151674.119 5   -494350.93315       627.475          33.100  
G19  23930610.516 4     84099.19014     -2796.967          24.300  
G24  23021706.037 6   2010217.791 6     -2990.379          39.100  
G25  21436681.127 6  -1695950.295 6      2254.503          35.900  
G29  23421432.513 5    -56158.94425      2260.951          30.100  
> 2020 06 10 20 15 12.4432858  0  8                     
G02  20960703.295 5    586701.777 5     -1022.326          31.100  
G05  23263138.752 5  -1353265.458 5      3219.692          31.700  
G06  22279752.337 5   1847090.844 5     -2767.628          31.500  
G12  20151557.455 5   -494978.798 5       624.442          31.700  
G19  23931158.492 4     86897.21414     -2804.897          24.100  
G24  23022273.200 6   2013205.079 6     -2988.150          36.600  
G25  21436254.178 6  -1698205.688 6      2252.501          35.700  
G29  23420997.169 5    -58423.19515      2263.285          29.800  
> 2020 06 10 20 15 13.4432858  0  8                     
G02  20960904.983 4              24     -1007.700          26.500  
G05  23262517.510 4              24      3240.450          29.100  
G06  22280274.503 4              24     -2753.400          28.300  
G12  20151432.070 4              24       644.300          28.500  
G19                                                                
G24  23022839.436 5   2016189.28815     -2970.984          33.600  
G25  21435818.508 5  -1700460.05415      2266.273          33.000  
G29  23420568.694 4              24      2286.250          28.500  
> 2020 06 10 20 15 14.4432858  0  8                     
G02  20961090.427 5    588733.815 5     -1016.358          29.900  
G05  23261910.302 5  -1359718.746 5      3227.823          34.600  
G06  22280802.309 5              25     -2767.000          33.000  
G12  20151318.320 5   -496242.98425       633.249          31.500  
G19  23932235.746 4     92504.36624     -2806.353          25.000  
G24  23023405.916 6   2019154.219 6     -2971.155          37.400  
G25  21435391.775 6  -1702730.627 6      2263.633          36.800  
G29  23420133.867 5    -62971.56125      2279.792          31.800  
> 2020 06 10 20 15 15.4432857  0  8                     
G02  20961252.240 5    589753.726 5     -1019.168          30.700  
G05  23261265.374 5  -1362942.909 5      3225.425          33.500  
G06  22281299.591 5   1855401.262 5     -2770.751          31.500  
G12  20151164.153 5   -496872.87425       631.121          30.600  
G19  23932747.417 3     95317.98413     -2815.671          23.400  
G24  23023943.369 6   2022126.860 6     -2970.048          37.000  
G25  21434931.819 6  -1704991.842 6      2262.675          36.400  
G29  23419668.814 5    -65249.51115      2280.593          31.700  
> 2020 06 10 20 15 16.4432857  0  8                     
G02  20961448.249 5    590774.246 5     -1019.044          31.200  
G05  23260652.543 5  -1366168.711 5      3229.049          30.100  
G06  22281823.273 5   1858174.281 5     -2772.082          30.900  
G12  20151049.277 4   -497502.61324       631.225          29.000  
G19  23933264.803 4     98131.84214     -2813.105          27.900  
G24  23024508.422 6   2025096.088 6     -2965.725          37.400  
G25  21434501.861 5  -1707253.191 5      2262.628          35.200  
G29  23419234.659 5    -67530.152 5      2282.805          33.500  
> 2020 06 10 20 15 17.4432857  0  8                     
G02  20961644.374 5    591790.317 5     -1021.365          34.000  
G05  23260038.329 5  -1369402.146 5      3229.366          30.600  
G06  22282354.566 5   1860944.811 5     -2776.957          33.200  
G12  20150930.020 4   -498136.91424       629.295          28.300  
G19  23933799.994 4    100942.92014     -2816.767          29.000  
G24  23025068.795 6   2028056.672 6     -2963.501          39.100  
G25  21434072.619 6  -1709518.529 6      2260.225          36.000  
G29  23418801.220 6    -69816.933 6      2282.796          37.400  
> 2020 06 10 20 15 18.4432857  0  8                     
G02  20961843.841 5    592822.252 5     -1034.178          35.300  
G05  23259423.859 5  -1372623.107 5      3219.721          30.600  
G06  22282886.802 5   1863732.900 5     -2790.848          34.200  
G12  20150809.608 4   -498755.46814       614.045          26.300  
G19  23934335.228 5    103771.31715     -2830.272          30.300  
G24  23025635.208 6   2031027.980 6     -2972.755          39.100  
G25  21433641.922 6  -1711768.798 6      2247.365          36.400  
G29  23418366.326 6    -72090.551 6      2272.184          36.900  
> 2020 06 10 20 15 19.4432857  0  8                     
G02  20962036.742 5    593854.974 5     -1027.548          35.000  
G05  23258810.018 4              24      3223.500          25.100  
G06  22283414.571 5   1866522.440 5     -2784.403          33.500  
G12  20150690.125 4   -499371.87114       622.759          26.400  
G19  23934855.202 4    106598.77414     -2822.115          26.900  
G24  23026202.249 6   2033998.257 6     -2964.512          37.300  
G25  21433216.650 6  -1714017.327 6      2253.208          36.400  
G29  23417932.960 6    -74364.186 6      2279.079          36.100  
> 2020 06 10 20 15 20.4432857  0  7                     
G02  20962234.228 5    594878.69715     -1027.386          31.500  
G05  23258198.965 3  -1379066.53423      3228.966          22.500  
G06  22283942.729 5   1869302.68015     -2782.555          30.400  
G12  20150572.230 4   -499998.58214       624.448          24.900  
G24  23026762.185 5   2036960.86215     -2970.996          31.000  
G25  21432785.472 6  -1716273.61216      2252.204          35.700  
G29  23417499.384 5    -76646.49015      2278.491          35.300  
> 2020 06 10 20 15 21.4432856  0  8                     
G02  20962400.988 5    595906.88815     -1026.195          33.100  
G05  23257550.589 5  -1382295.72015      3230.597          29.600  
G06  22284445.855 5   1872087.54215     -2784.745          31.100  
G12  20150435.000 3              23       624.850          22.000  
G19  23935925.160 4              24     -2820.800          25.100  
G24  23027300.088 6   2039933.69416     -2966.509          36.600  
G25  21432328.064 4  -1718521.48514      2248.574          28.400  
G29  23417014.994 3              23      2266.900          20.200  
> 2020 06 10 20 15 22.4432856  0  7                     
G02  20962594.811 6    596930.687 6     -1023.746          35.500  
G05  23256928.077 4  -1385532.24614      3236.970          29.200  
G06  22284976.045 5   1874868.087 5     -2780.045          33.600  
G12  20150301.749 4   -501251.52424       625.388          24.600  
G19  23936459.847 4    115065.06524     -2815.644          28.900  
G24  23027860.257 6   2042893.083 6     -2960.242          38.200  
G25  21431895.620 6  -1720775.236 6      2253.241          36.700  
> 2020 06 10 20 15 23.4432856  0  8                     
G02  20962791.948 6    597961.251 6     -1032.301          35.700  
G05  23256320.271 5  -1388762.756 5      3228.970          30.300  
G06  22285501.755 5   1877654.334 5     -2787.835          34.200  
G12  20150188.302 4   -501869.41514       616.023          26.900  
G19  23936995.450 4    117886.75014     -2823.953          28.800  
G24  23028423.741 6   2045860.676 6     -2969.298          38.700  
G25  21431471.888 6  -1723021.155 6      2244.225          36.500  
G29  23416169.310 6     -1009.833 6      2269.198          35.500  
> 2020 06 10 20 15 24.4432856  0  8                     
G02  20962984.485 5    598991.716 5     -1025.036          35.400  
G05  23255708.166 4  -1391993.118 4      3235.511          28.000  
G06  22286037.255 5   1880439.914 5     -2780.761          33.900  
G12  20150064.558 4   -502488.126 4       623.783          26.000  
G19  23937533.948 4    120707.59914     -2815.078          28.000  
G24  23028991.019 6   2048827.918 6     -2961.446          38.400  
G25  21431040.257 6  -1725268.144 6      2252.460          35.900  
G29  23415735.881 5     -3281.987 5      2277.882          34.800  
> 2020 06 10 20 15 25.4432856  0  8                     
G02  20963180.106 6    600013.032 6     -1019.790          35.900  
G05  23255089.850 4  -1395232.125 4      3240.373          29.000  
G06  22286568.344 5   1883217.192 5     -2775.841          33.200  
G12  20149940.600 4   -503116.14914       629.711          27.500  
G19  23938071.931 4    123520.11114     -2811.536          26.300  
G24  23029555.384 6   2051785.321 6     -2955.425          38.200  
G25  21430612.909 6  -1727524.972 6      2258.844          35.700  
G29  23415306.734 6     -5564.467 6      2284.846          35.700  
> 2020 06 10 20 15 26.4432856  0  8                     
G02  20963374.725 6    601032.285 6     -1018.623          36.200  
G05  23254470.832 4  -1398473.659 4      3243.024          29.300  
G06  22287090.036 5   1885992.393 5     -2774.738          32.100  
G12  20149826.133 4   -503746.24714       630.401          24.900  
G19  23938594.523 4    126328.85814     -2807.410          25.200  
G24  23030114.851 6   2054739.393 6     -2952.600          38.700  
G25  21430183.660 6  -1729784.665 6      2260.242          36.600  
G29  23414871.189 6     -7850.562 6      2287.088          36.300  
> 2020 06 10 20 15 27.4432856  0  8                     
G02  20963567.771 5    602045.557 5     -1011.276          35.400  
G05  23253842.147 4  -1401723.06314      3252.510          25.500  
G06  22287619.149 5   1888761.907 5     -2767.588          32.100  
G12  20149716.388 4   -504381.58014       637.971          26.200  
G19  23939142.823 5    129131.82525     -2801.086          30.400  
G24  23030675.442 6   2057686.261 6     -2944.992          36.800  
G25  21429749.540 6  -1732049.924 6      2267.208          36.100  
G29  23414426.276 5    -10142.787 5      2294.039          35.200  
> 2020 06 10 20 15 28.4432856  0  8                     
G02  20963759.482 6    603067.372 6     -1028.339          36.700  
G05  23253234.911 5              25      3229.850          30.600  
G06  22288152.624 5   1891539.945 5     -2784.146          32.200  
G12  20149593.617 4              24       621.950          23.900  
G19  23939672.400 5    131943.95815     -2819.221          30.700  
G24  23031242.793 6   2060642.001 6     -2962.654          37.700  
G25  21429319.781 6  -1734307.908 6      2253.911          36.600  
G29  23413996.818 6    -12427.811 6      2280.942          35.600  
> 2020 06 10 20 15 29.4432856  0  8                     
G02  20963956.567 6    604091.182 6     -1019.996          35.500  
G05  23252629.751 4  -1408209.76724      3233.530          28.600  
G06  22288681.879 5   1894319.192 5     -2775.189          30.600  
G12  20149476.520 4   -505644.318 4       630.653          24.600  
G19  23940226.538 3              23     -2804.700          22.000  
G24  23031801.128 6   2063600.623 6     -2955.069          37.300  
G25  21428892.398 6  -1736568.974 6      2266.592          36.000  
G29  23413565.538 5    -14716.062 5      2293.969          34.700  
> 2020 06 10 20 15 30.4432855  0  7                     
G02  20964120.929 6    605113.064 6     -1024.216          35.700  
G05  23251978.078 5  -1411440.60015      3228.007          30.100  
G06  22289174.513 5   1897096.230 5     -2779.003          31.300  
G12  20149317.705 4   -506274.625 4       627.755          26.600  
G24  23032336.333 6   2066557.611 6     -2959.689          37.000  
G25  21428430.494 6  -1738834.560 6      2263.618          36.400  
G29  23413094.939 6    -17008.991 6      2290.944          35.900  
> 2020 06 10 20 15 31.4432855  0  8                     
G02  20964316.008 5    606136.347 5     -1018.494          35.100  
G05  23251363.718 5  -1414669.084 5      3232.105          30.000  
G06  22289703.861 5   1899873.84715     -2772.601          32.300  
G12  20149209.095 4   -506903.45714       633.939          27.100  
G19  23941241.925 3              23     -2811.850          21.400  
G24  23032897.759 6   2069516.904 6     -2955.127          36.900  
G25  21427999.906 6  -1741099.409 6      2270.440          36.300  
G29  23412663.153 5    -19300.781 5      2297.140          35.400  
> 2020 06 10 20 15 32.4432855  0  8                     
G02  20964509.475 5    607156.349 5     -1024.647          35.100  
G05  23250743.548 4  -1417897.436 4      3221.980          29.000  
G06  22290231.596 5   1902647.789 5     -2778.574          31.800  
G12  20149082.683 4   -507536.60514       629.108          24.700  
G19  23941768.761 4    143202.93424     -2818.166          26.400  
G24  23033460.270 6   2072474.161 6     -2961.856          36.200  
G25  21427567.107 5  -1743370.189 5      2268.088          35.200  
G29  23412222.858 5    -21598.283 5      2294.992          34.300  
> 2020 06 10 20 15 33.4432855  0  8                     
G02  20964704.687 5    608177.67315     -1012.491          33.900  
G05  23250130.820 4              24      3233.150          25.100  
G06  22290760.478 5                     -2763.700          30.400  
G12  20148950.822 4              24       645.000          24.600  
G19  23942307.835 4              24     -2803.650          27.200  
G24  23034023.927 5   2075432.703 5     -2948.629          34.400  
G25  21427137.552 5  -1745641.23615      2280.981          34.500  
G29  23411784.309 5    -23897.26815      2309.196          33.700  
> 2020 06 10 20 15 34.4432855  0  8                     
G02  20964899.383 6    609192.735 6     -1024.452          36.300  
G05  23249519.973 4  -1424344.857 4      3220.554          28.600  
G06  22291287.343 5   1908201.375 5     -2778.579          33.000  
G12  20148831.635 4   -508803.00724       629.833          28.100  
G19  23942848.192 4    148834.02524     -2818.090          27.600  
G24  23034585.569 6   2078383.942 6     -2960.798          36.700  
G25  21426700.884 6  -1747921.033 6      2270.663          36.700  
G29  23411344.944 6    -26204.775 6      2298.366          36.200  
> 2020 06 10 20 15 35.4432855  0  8                     
G02  20965091.074 5    610222.074 5     -1028.323          34.900  
G05  23248907.921 4  -1427560.459 4      3216.898          28.200  
G06  22291814.503 5   1910984.402 5     -2781.708          31.400  
G12  20148717.838 4   -509427.96614       626.178          28.200  
G19  23943390.341 4    151657.11414     -2822.878          23.900  
G24  23035149.603 6   2081349.602 6     -2964.724          36.600  
G25  21426269.008 6  -1750186.865 6      2266.996          35.700  
G29  23410911.268 5    -28498.434 5      2294.648          34.900  
> 2020 06 10 20 15 36.4432855  0  8                     
G02  20965287.938 5    611247.544 5     -1025.624          35.200  
G05  23248303.739 5  -1430780.598 5      3219.179          30.200  
G06  22292344.735 5   1913762.397 5     -2778.425          33.100  
G12  20148593.623 4   -510056.27714       628.594          26.700  
G19  23943913.678 4    154475.08714     -2817.846          26.500  
G24  23035710.414 6   2084311.306 6     -2962.756          36.800  
G25  21425836.007 6  -1752457.249 6      2269.847          36.500  
G29  23410471.672 5    -30795.999 5      2297.419          35.200  
> 2020 06 10 20 15 37.4432855  0  8                     
G02  20965485.698 5    612278.472 5     -1036.216          35.200  
G05  23247689.061 4  -1433994.272 4      3207.883          29.400  
G06  22292876.764 5   1916545.808 5     -2788.661          33.200  
G12  20148481.098 4   -510679.689 4       618.347          27.200  
G19  23944452.901 4    157297.80014     -2828.182          27.600  
G24  23036276.619 6   2087279.403 6     -2973.467          37.200  
G25  21425408.100 6  -1754722.218 6      2260.067          36.600  
G29  23410033.872 6    -33088.465 6      2287.547          35.500  
> 2020 06 10 20 15 38.4432855  0  8                     
G02  20965680.487 5    613317.242 5     -1036.484          35.200  
G05  23247078.608 4  -1437199.39114      3207.576          28.700  
G06  22293407.021 5   1919337.094 5     -2788.610          31.800  
G12  20148373.997 4   -511294.91814       617.005          26.300  
G19  23944997.849 4    160130.23114     -2829.490          26.800  
G24  23036843.751 6   2090255.166 6     -2972.853          37.100  
G25  21424979.921 6  -1756980.171 6      2260.985          36.200  
G29  23409602.995 5    -35374.245 5      2289.031          35.200  
> 2020 06 10 20 15 39.4432855  0  8                     
G02  20965878.879 5    614355.02615     -1041.439          35.400  
G05  23246471.158 4  -1440405.06714      3201.323          28.600  
G06  22293940.881 5   1922127.785 5     -2794.744          33.200  
G12  20148254.009 4   -511911.42714       612.261          27.000  
G19  23945538.903 4    162957.83914     -2831.352          26.900  
G24  23037407.589 6   2093229.41816     -2979.722          36.200  
G25  21424547.549 6  -1759239.388 6      2255.265          36.100  
G29  23409168.525 6    -37661.668 6      2283.544          35.900  
> 2020 06 10 20 15 40.4432854  0  8                     
G02  20966047.598 6    615398.44116     -1045.197          35.800  
G05  23245828.638 5  -1443604.81225      3199.273          29.800  
G06  22294437.872 5   1924924.643 5     -2797.718          33.300  
G12  20148095.954 4   -512521.33714       609.250          28.500  
G19  23946045.488 5    165793.84625     -2836.676          30.300  
G24  23037948.950 6   2096210.87226     -2981.143          37.400  
G25  21424090.301 5  -1761491.50815      2250.898          35.300  
G29  23408704.082 5    -39944.22215      2281.088          35.200  
> 2020 06 10 20 15 41.4432854  0  8                     
G02  20966250.000 6    616441.538 6     -1037.574          36.000  
G05  23245221.601 5  -1446806.45225      3207.303          31.000  
G06  22294968.548 5   1927720.134 5     -2789.852          33.300  
G12  20147983.575 4   -513132.73714       616.851          28.900  
G19  23946583.658 4    168628.16224     -2828.380          28.300  
G24  23038513.202 5   2099190.00515     -2973.972          32.200  
G25  21423662.241 6  -1763745.475 6      2259.515          36.100  
G29  23408267.927 6    -42226.669 6      2288.260          36.400  
> 2020 06 10 20 15 42.4432854  0  8                     
G02  20966446.148 6    617479.609 6     -1042.663          36.300  
G05  23244606.211 5  -1450013.57315      3202.196          29.600  
G06  22295506.159 5   1930510.071 5     -2795.000          32.600  
G12  20147864.940 4   -513749.890 4       612.008          28.800  
G19  23947112.876 4    171456.84614     -2833.492          27.400  
G24  23039079.594 6   2102163.907 6     -2978.048          37.100  
G25  21423229.124 6  -1766005.249 6      2254.974          36.400  
G29  23407831.512 5    -44514.995 5      2283.606          34.400  
> 2020 06 10 20 15 43.4432854  0  8                     
G02  20966644.606 6    618525.620 6     -1045.865          36.300  
G05  23243997.927 4  -1453212.841 4      3199.956          29.400  
G06  22296034.689 5   1933308.390 5     -2798.447          32.100  
G12  20147760.308 4   -514358.54814       608.590          28.600  
G19  23947658.793 4    174292.86414     -2835.685          27.800  
G24  23039646.797 6   2105144.893 6     -2980.353          37.200  
G25  21422800.116 6  -1768256.985 6      2251.698          36.000  
G29  23407395.909 5    -46795.40715      2280.794          34.000  
> 2020 06 10 20 15 44.4432854  0  8                     
G02  20966842.928 6    619572.851 6     -1048.974          35.800  
G05  23243391.606 4  -1456412.366 4      3198.953          27.200  
G06  22296563.681 5   1936108.107 5     -2801.701          31.800  
G12  20147636.053 4   -514965.88924       605.504          28.900  
G19  23948202.476 4    177130.11814     -2838.936          28.400  
G24  23040213.863 6   2108126.049 6     -2982.410          36.700  
G25  21422373.970 6  -1770506.950 6      2247.428          36.200  
G29  23406966.466 6    -49074.999 6      2277.063          36.700  
> 2020 06 10 20 15 45.4432853  0  8                     
G02  20967012.940 5    620620.282 5     -1045.012          35.200  
G05  23242744.684 4  -1459614.282 4      3205.818          26.200  
G06  22297072.759 5   1938908.311 5     -2797.674          31.400  
G12  20147490.684 4   -515572.30724       608.614          29.400  
G19  23948701.960 4    179966.57614     -2832.245          27.100  
G24  23040747.524 6   2111106.508 6     -2977.752          36.100  
G25  21421915.018 6  -1772754.723 6      2249.065          35.800  
G29  23406498.220 6    -51352.687 6      2279.026          36.500  
> 2020 06 10 20 15 46.4432853  0  8                     
G02  20967213.721 6    621661.621 6     -1034.760          35.600  
G05  23242151.015 4  -1462824.85914      3217.495          26.800  
G06  22297605.410 5   1941702.297 5     -2787.208          33.100  
G12  20147366.789 4   -516183.84714       617.826          28.600  
G19  23949254.397 4    182794.60914     -2821.521          26.500  
G24  23041322.146 6   2114080.606 6     -2967.477          37.200  
G25  21421485.036 6  -1775006.377 6      2257.386          35.800  
G29  23406063.740 6    -53634.135 6      2287.177          36.800  
> 2020 06 10 20 15 47.4432853  0  8                     
G02  20967408.311 5    622695.163 5     -1033.216          34.500  
G05  23241524.773 4  -1466044.46814      3220.825          28.900  
G06  22298130.671 5   1944488.172 5     -2785.445          33.000  
G12  20147254.092 4   -516802.748 4       619.281          27.900  
G19  23949794.648 4    185613.85914     -2818.513          25.600  
G24  23041880.684 6   2117046.984 6     -2965.975          36.900  
G25  21421055.158 5  -1777264.396 5      2258.158          35.100  
G29  23405629.366 6    -55921.769 6      2287.732          36.200  
> 2020 06 10 20 15 48.4432853  0  8                     
G02  20967601.799 6    623731.706 6     -1039.297          35.600  
G05  23240918.114 5  -1469261.534 5      3215.235          30.500  
G06  22298660.826 5   1947276.977 5     -2791.386          32.700  
G12  20147139.992 5   -517418.382 5       612.848          29.900  
G19  23950320.305 4    188435.15114     -2823.775          27.800  
G24  23042448.612 6   2120016.487 6     -2972.160          38.100  
G25  21420626.276 5  -1779519.065 5      2251.935          35.300  
G29  23405194.488 6    -58205.471 6      2281.662          36.500  
> 2020 06 10 20 15 49.4432853  0  8                     
G02  20967803.144 5    624770.302 5     -1039.319          35.000  
G05  23240300.427 5  -1472477.471 5      3215.474          29.500  
G06  22299193.742 5   1950067.568 5     -2791.495          31.800  
G12  20147024.457 4   -518031.995 4       612.787          28.500  
G19  23950858.918 4    191258.534 4     -2824.070          27.400  
G24  23043012.707 6   2122987.663 6     -2971.604          37.800  
G25  21420201.955 5  -1781771.636 5      2251.872          35.200  
G29  23404766.570 6    -60487.820 6      2281.756          36.200  
> 2020 06 10 20 15 50.4432853  0  8                     
G02  20968001.832 5    625809.392 5     -1039.052          35.200  
G05  23239687.877 4  -1475693.848 4      3217.099          29.100  
G06  22299723.401 5   1952858.696 5     -2791.325          30.500  
G12  20146900.269 4   -518644.937 4       613.031          28.700  
G19  23951400.568 4    194081.49614     -2822.418          25.800  
G24  23043580.739 6   2125958.351 6     -2969.904          37.100  
G25  21419773.477 5  -1784023.776 5      2252.216          34.900  
G29  23404326.100 6    -62770.266 6      2282.722          35.900  
> 2020 06 10 20 15 51.4432853  0  8                     
G02  20968199.113 6    626847.494 6     -1036.158          35.600  
G05  23239081.114 5  -1478912.98015      3221.020          30.100  
G06  22300253.450 5   1955648.91015     -2788.282          32.000  
G12  20146785.166 5   -519258.907 5       615.605          30.000  
G19  23951939.312 4    196902.39514     -2817.926          26.300  
G24  23044141.667 6   2128926.824 6     -2966.279          38.100  
G25  21419344.791 6  -1786276.876 6      2254.724          35.600  
G29  23403892.317 6    -65054.374 6      2285.824          35.800  
> 2020 06 10 20 15 52.4432852  0  8                     
G02  20968363.098 5    627882.523 5     -1035.845          34.800  
G05  23238435.960 5  -1482135.96125      3223.031          30.500  
G06  22300754.103 5   1958436.12425     -2787.950          30.200  
G12  20146636.168 4   -519875.719 4       615.856          28.300  
G19  23952436.068 4    199717.52714     -2816.920          25.900  
G24  23044675.897 5   2131891.680 5     -2965.336          35.200  
G25  21418879.512 5  -1788532.323 5      2254.108          35.000  
G29  23403429.437 5    -67341.101 5      2285.333          34.900  
> 2020 06 10 20 15 53.4432852  0  8                     
G02  20968563.261 5    628918.59815     -1028.679          33.000  
G05  23237820.687 4              24      3238.300          27.500  
G06  22301293.931 4              24     -2774.650          29.400  
G12  20146507.159 4              24       627.050          26.200  
G19  23952971.399 4              24     -2801.250          26.300  
G24  23045240.308 5   2134857.23315     -2957.543          34.600  
G25  21418451.910 5  -1790785.49215      2260.384          33.300  
G29  23402991.342 5    -69625.499 5      2291.673          34.400  
> 2020 06 10 20 15 54.4432852  0  8                     
G02  20968756.228 6    629938.734 6     -1021.555          36.100  
G05  23237197.019 5              25      3240.450          30.600  
G06  22301809.774 5              25     -2773.800          32.700  
G12  20146407.528 4   -521118.504 4       628.958          29.100  
G19  23953511.824 4    205339.759 4     -2801.877          28.900  
G24  23045797.522 6              26     -2951.700          36.600  
G25  21418023.706 6  -1793053.237 6      2265.774          36.200  
G29  23402555.943 6    -71924.339 6      2296.959          36.300  
> 2020 06 10 20 15 55.4432852  0  8                     
G02  20968951.586 6    630968.888 6     -1036.871          36.200  
G05  23236591.931 5  -1491818.97125      3226.072          29.800  
G06  22302344.797 5   1966796.10625     -2789.134          32.800  
G12  20146282.408 4   -521738.803 4       613.536          29.000  
G19  23954037.254 4    208150.27914     -2817.054          28.200  
G24  23046367.321 6   2140771.26226     -2964.486          37.400  
G25  21417589.201 6  -1795310.042 6      2249.786          36.100  
G29  23402123.836 5    -74212.634 5      2281.685          35.300  
> 2020 06 10 20 15 56.4432852  0  8                     
G02  20969150.678 5    632005.10215     -1032.073          35.400  
G05  23235972.590 4  -1495046.79324      3234.041          29.100  
G06  22302871.862 5   1969584.70125     -2784.709          31.200  
G12  20146174.812 4   -522353.73714       618.482          28.200  
G19  23954585.305 4    210965.98024     -2811.368          28.000  
G24  23046928.562 6   2143734.29316     -2958.180          36.200  
G25  21417166.523 5  -1797560.00815      2253.713          34.900  
G29  23401687.668 5    -76495.006 5      2286.962          34.700  
> 2020 06 10 20 15 57.4432852  0  8                     
G02  20969342.453 5    633032.529 5     -1027.429          34.500  
G05  23235366.318 4  -1498286.23714      3240.305          27.200  
G06  22303404.501 5   1972364.67915     -2779.943          30.300  
G12  20146050.606 4   -522976.17714       622.285          28.500  
G19  23955108.650 4    213772.18614     -2805.675          28.100  
G24  23047492.080 6   2146687.466 6     -2953.422          36.000  
G25  21416736.829 5  -1799817.830 5      2257.101          34.500  
G29  23401247.181 5    -78786.57515      2289.693          35.400  
> 2020 06 10 20 15 58.4432852  0  8                     
G02  20969541.560 5    634067.551 5     -1038.275          35.300  
G05  23234743.693 4  -1501519.68914      3230.646          26.400  
G06  22303933.380 5   1975151.958 5     -2790.310          32.000  
G12  20145930.134 4   -523590.45524       610.627          28.200  
G19  23955645.623 4    216584.68724     -2815.016          27.200  
G24  23048055.435 6   2149648.465 6     -2964.514          36.400  
G25  21416307.870 5  -1802066.646 5      2245.052          35.400  
G29  23400818.222 6    -81067.914 6      2277.332          35.600  
> 2020 06 10 20 15 59.4432852  0  8                     
G02  20969740.175 5    635100.095 5     -1025.207          35.300  
G05  23234132.868 4  -1504756.62614      3245.453          26.700  
G06  22304459.368 5   1977936.292 5     -2776.904          31.800  
G12  20145803.474 4   -524206.74414       623.483          28.100  
G19  23956181.205 4    219393.21114     -2800.158          27.700  
G24  23048616.199 6   2152607.326 6     -2951.358          36.400  
G25  21415881.418 5  -1804317.021 5      2257.453          35.300  
G29  23400380.078 6    -83350.611 6      2290.399          35.500  
> 2020 06 10 20 16 00.4432852  0  8                     
G02  20969932.661 6    636127.761 6     -1036.616          36.400  
G05  23233508.121 4  -1507999.57714      3234.420          28.100  
G06  22304988.521 5   1980715.764 5     -2788.589          33.400  
G12  20145699.766 5   -524827.781 5       612.058          30.000  
G19  23956716.054 4    222192.76314     -2807.334          26.600  
G24  23049179.229 6   2155561.262 6     -2961.974          38.600  
G25  21415453.034 6  -1806571.684 6      2245.403          35.800  
G29  23399943.899 6    -85637.806 6      2278.056          36.600  
> 2020 06 10 20 16 01.4432852  0  8                     
G02  20970126.446 6    637163.504 6     -1028.038          35.500  
G05  23232891.267 4  -1511235.93214      3245.105          27.900  
G06  22305524.370 5   1983503.495 5     -2780.143          32.100  
G12  20145584.765 5   -525440.389 5       620.140          30.500  
G19  23957252.502 4              24     -2801.200          26.800  
G24  23049743.557 6   2158521.898 6     -2952.535          37.400  
G25  21415022.052 6  -1808817.530 6      2253.091          35.700  
G29  23399512.318 5    -87916.544 5      2286.172          35.400  
> 2020 06 10 20 16 02.4432852  0  8                     
G02  20970321.735 6    638190.598 6     -1031.318          35.900  
G05  23232270.521 4  -1514482.53414      3242.884          28.400  
G06  22306052.728 5   1986282.686 5     -2783.428          32.400  
G12  20145465.571 5   -526061.356 5       616.567          30.200  
G19  23957782.959 4    227809.72824     -2804.983          28.700  
G24  23050306.692 6   2161473.014 6     -2955.207          36.700  
G25  21414595.571 6  -1811071.124 6      2248.907          35.800  
G29  23399075.644 6    -90203.406 6      2282.150          36.200  
> 2020 06 10 20 16 03.4432852  0  8                     
G02  20970525.743 6    639225.054 6     -1035.254          36.200  
G05  23231655.796 4  -1517724.00814      3240.465          27.600  
G06  22306584.109 5   1989069.243 5     -2787.522          32.700  
G12  20145345.804 5   -526674.554 5       612.399          30.500  
G19  23958314.041 4    230617.48014     -2807.838          28.700  
G24  23050867.753 6   2164431.144 6     -2958.702          36.500  
G25  21414170.315 6  -1813316.420 6      2244.051          35.900  
G29  23398646.191 6    -92482.087 6      2277.481          36.700  
> 2020 06 10 20 16 04.4432852  0  8                     
G02  20970720.177 6    640264.516 6     -1036.857          36.200  
G05  23231037.492 4  -1520961.22214      3240.363          26.800  
G06  22307112.512 5   1991860.788 5     -2788.930          32.200  
G12  20145231.451 5   -527282.533 5       610.360          29.600  
G19  23958844.541 4    233428.86514     -2808.487          28.400  
G24  23051429.432 6   2167393.496 6     -2959.474          36.400  
G25  21413742.379 6  -1815556.028 6      2241.808          35.700  
G29  23398209.561 6    -94755.386 6      2275.547          35.800  
> 2020 06 10 20 16 05.4432851  0  8                     
G02  20970889.036 6    641297.907 6     -1037.066          36.000  
G05  23230387.618 4  -1524206.22814      3243.197          25.000  
G06  22307620.137 5   1994646.229 5     -2789.156          33.100  
G12  20145080.132 5   -527896.218 5       609.780          29.600  
G19  23959362.659 4    236232.79014     -2807.642          25.700  
G24  23051964.638 6   2170349.390 6     -2959.477          37.400  
G25  21413282.574 6  -1817800.753 6      2240.570          35.800  
G29  23397745.259 6    -97033.946 6      2274.413          36.300  
> 2020 06 10 20 16 06.4432851  0  8                     
G02  20971084.649 6    642337.17216     -1037.307          35.500  
G05  23229779.487 4  -1527446.29914      3241.891          27.700  
G06  22308140.125 5   1997437.791 5     -2789.641          33.100  
G12  20144974.753 5              25       610.100          30.500  
G19  23959897.637 5    239043.484 5     -2807.767          30.500  
G24  23052524.798 6   2173310.40516     -2959.702          36.700  
G25  21412861.513 5  -1820037.62715      2237.653          34.900  
G29  23397315.205 6    -99305.22116      2272.867          35.500  
> 2020 06 10 20 16 07.4432851  0  8                     
G02  20971281.339 6    643374.18426     -1040.676          35.800  
G05  23229165.838 4  -1530690.34814      3240.118          29.100  
G06  22308676.479 5   2000226.387 5     -2792.355          33.100  
G12  20144858.459 5   -529119.38725       605.660          30.800  
G19  23960431.893 4    241848.81614     -2809.041          28.600  
G24  23053090.832 6   2176269.662 6     -2962.876          37.400  
G25  21412436.433 6  -1822276.92926      2235.228          35.500  
G29  23396883.529 6   -101578.74826      2268.988          36.400  
> 2020 06 10 20 16 08.4432851  0  8                     
G02  20971482.119 5    644421.44625     -1047.753          35.400  
G05  23228549.384 5  -1533924.67225      3234.534          30.700  
G06  22309204.933 5   2003025.309 5     -2799.244          33.700  
G12  20144738.162 5   -529718.13025       598.191          30.200  
G19  23960962.145 5    244665.06825     -2816.213          30.800  
G24  23053654.062 6   2179238.433 6     -2968.651          37.500  
G25  21412007.650 5  -1824505.52825      2228.090          35.400  
G29  23396455.345 6   -103841.51326      2262.584          37.000  
> 2020 06 10 20 16 09.4432851  0  8                     
G02  20971681.414 5    645467.40425     -1044.125          34.900  
G05  23227929.046 5  -1537161.05025      3238.494          30.300  
G06  22309739.396 5   2005822.724 5     -2795.375          34.200  
G12  20144623.874 5   -530318.20125       601.617          30.100  
G19  23961494.210 4    247479.04024     -2811.502          28.700  
G24  23054220.302 6   2182205.549 6     -2965.380          37.700  
G25  21411584.276 5  -1826735.12525      2231.211          34.900  
G29  23396023.877 6   -106105.39426      2265.472          36.700  
> 2020 06 10 20 16 10.4432851  0  8                     
G02  20971875.629 5    646509.14025     -1041.451          35.000  
G05  23227310.524 5  -1540402.07325      3241.551          30.100  
G06  22310269.978 5   2008615.683 5     -2792.779          34.100  
G12  20144507.804 5   -530922.26725       604.538          29.700  
G19  23962028.989 5    250288.18925     -2808.880          29.500  
G24  23054782.363 6   2185168.480 6     -2962.228          37.600  
G25  21411158.220 5  -1828968.71425      2234.171          35.000  
G29  23395590.026 6   -108373.25826      2268.690          36.200  
> 2020 06 10 20 16 11.4432851  0  8                     
G02  20972078.750 5    647550.77725     -1044.008          35.300  
G05  23226693.713 4  -1543642.77414      3237.274          27.100  
G06  22310799.573 5   2011408.797 5     -2795.445          33.900  
G12  20144391.047 5   -531526.65425       602.140          30.000  
G19  23962572.675 5    253097.39725     -2810.937          30.900  
G24  23055345.835 6   2188130.376 6     -2963.852          36.700  
G25  21410731.178 5  -1831203.07925      2232.419          35.400  
G29  23395156.688 6   -110642.47826      2267.672          36.600  
> 2020 06 10 20 16 12.4432851  0  8                     
G02  20972275.555 5    648599.88215     -1051.380          32.700  
G05  23226078.380 5  -1546877.02715      3232.702          29.500  
G06  22311335.743 5   2014207.21715     -2800.198          31.400  
G12  20144274.868 4   -532125.38714       597.806          27.700  
G19  23963112.142 4              24     -2816.900          26.100  
G24  23055917.080 5   2191098.66615     -2970.339          35.200  
G25  21410312.509 5  -1833432.63415      2227.941          32.000  
G29  23394730.825 5   -112907.89715      2264.168          33.500  
> 2020 06 10 20 16 13.4432851  0  8                     
G02  20972474.805 5    649646.95015     -1038.584          31.900  
G05  23225460.696 4              24      3241.350          27.800  
G06  22311871.360 5   2017005.50215     -2789.473          30.200  
G12  20144167.131 4              24       610.100          25.700  
G19  23963647.759 4              24     -2806.750          25.300  
G24  23056477.880 5   2194065.819 5     -2959.023          34.900  
G25  21409887.291 5  -1835664.48715      2241.178          31.900  
G29  23394293.615 5   -115174.528 5      2276.527          32.700  
> 2020 06 10 20 16 14.4432850  0  8                     
G02  20972638.259 5    650685.390 5     -1041.971          35.100  
G05  23224818.007 5              25      3236.250          32.000  
G06  22312368.483 5   2019793.956 5     -2792.358          34.400  
G12  20144023.897 5   -533330.10425       605.176          31.100  
G19  23964132.590 4    261551.56624     -2809.711          27.900  
G24  23057008.579 6   2197024.998 6     -2963.289          37.600  
G25  21409426.876 5  -1837906.632 5      2238.024          35.100  
G29  23393829.903 6   -117451.679 6      2273.049          37.000  
> 2020 06 10 20 16 15.4432850  0  8                     
G02  20972843.621 6    651734.461 6     -1056.019          35.900  
G05  23224199.839 4  -1556561.68124      3221.920          27.900  
G06  22312900.319 5   2022593.553 5     -2806.852          34.200  
G12  20143905.783 5   -533928.02525       590.839          30.900  
G19  23964689.309 4    264367.75814     -2822.876          28.700  
G24  23057574.891 6   2199995.025 6     -2976.451          37.200  
G25  21409005.672 5  -1840137.229 5      2223.225          35.300  
G29  23393400.304 6   -119717.312 6      2258.561          36.700  
> 2020 06 10 20 16 16.4432850  0  8                     
G02  20973048.665 6    652793.371 6     -1059.042          35.600  
G05  23223593.645 5  -1559780.69715      3220.799          29.800  
G06  22313442.030 5   2025403.064 5     -2810.257          33.700  
G12  20143791.548 5   -534515.85925       587.537          31.300  
G19  23965221.127 5    267193.30715     -2825.860          30.100  
G24  23058139.087 6   2202973.674 6     -2978.512          36.900  
G25  21408583.251 5  -1842357.424 5      2219.605          35.200  
G29  23392976.084 6   -121973.109 6      2255.346          36.200  
> 2020 06 10 20 16 17.4432850  0  8                     
G02  20973245.025 6    653854.718 6     -1063.155          36.000  
G05  23222969.174 5  -1563001.905 5      3219.784          29.600  
G06  22313970.561 5   2028215.181 5     -2813.876          33.300  
G12  20143682.420 5   -535101.15715       583.163          31.300  
G19  23965757.452 5    270020.56415     -2828.639          29.600  
G24  23058709.888 6   2205953.814 6     -2982.015          37.700  
G25  21408154.844 5  -1844574.521 5      2214.788          35.100  
G29  23392544.080 6   -124226.293 6      2250.809          36.700  
> 2020 06 10 20 16 18.4432850  0  8                     
G02  20973448.184 6    654922.283 6     -1068.632          35.500  
G05  23222373.685 5  -1566217.604 5      3215.662          30.700  
G06  22314508.587 5   2031033.235 5     -2818.872          34.300  
G12  20143569.297 5   -535679.836 5       577.443          30.400  
G19  23966284.686 4    272854.57114     -2835.130          27.000  
G24  23059277.294 6   2208940.627 6     -2987.148          37.400  
G25  21407738.631 5  -1846784.511 5      2208.598          34.600  
G29  23392114.676 6   -126472.262 6      2244.637          36.000  
> 2020 06 10 20 16 19.4432849  0  8                     
G02  20973621.200 5    655992.672 5     -1067.359          34.500  
G05  23221726.469 4  -1569432.56614      3217.780          26.800  
G06  22315018.870 5   2033854.169 5     -2817.955          33.200  
G12  20143423.634 5   -536255.332 5       578.404          29.800  
G19  23966794.969 4    275688.98214     -2830.768          27.300  
G24  23059815.158 6   2211929.154 6     -2984.872          36.700  
G25  21407288.978 5  -1848990.907 5      2209.236          35.200  
G29  23391661.426 5   -128714.976 5      2245.897          35.200  
> 2020 06 10 20 16 20.4432849  0  8                     
G02  20973826.840 5    657058.680 5     -1068.406          34.900  
G05  23221114.275 4  -1572651.47924      3218.707          28.200  
G06  22315547.386 5   2036670.792 5     -2818.899          32.600  
G12  20143322.886 5   -536835.081 5       577.299          30.200  
G19  23967334.578 4    278517.23314     -2829.116          23.600  
G24  23060385.346 6   2214912.304 6     -2985.441          36.500  
G25  21406867.452 5  -1851201.331 5      2207.623          34.800  
G29  23391234.204 5   -130962.077 5      2244.477          35.400  
> 2020 06 10 20 16 21.4432849  0  8                     
G02  20974028.561 6    658127.419 6     -1067.091          35.900  
G05  23220499.961 4  -1575870.29214      3221.615          28.700  
G06  22316084.874 5   2039489.870 5     -2817.150          33.400  
G12  20143214.321 5   -537411.730 5       578.113          31.200  
G19  23967887.955 4    281347.14914     -2828.634          28.000  
G24  23060954.012 6   2217897.977 6     -2984.067          37.800  
G25  21406450.701 6  -1853408.193 6      2208.117          35.900  
G29  23390804.861 6   -133205.731 6      2244.813          36.800  
> 2020 06 10 20 16 22.4432849  0  8                     
G02  20974235.278 5    659196.849 5     -1074.346          35.300  
G05  23219881.050 4  -1579089.76814      3213.822          28.000  
G06  22316623.762 5   2042309.444 5     -2824.568          32.400  
G12  20143105.657 5   -537987.508 5       571.225          30.300  
G19  23968419.047 4    284178.08724     -2836.115          26.700  
G24  23061517.183 6   2220884.214 6     -2990.836          36.100  
G25  21406026.655 5  -1855613.967 5      2201.353          35.200  
G29  23390376.918 6   -135448.301 6      2238.270          36.200  
> 2020 06 10 20 16 23.4432848  0  8                     
G02  20974413.663 5    660275.679 5     -1079.554          35.400  
G05  23219246.397 5  -1582298.81715      3207.860          29.500  
G06  22317130.419 5   2045138.488 5     -2829.626          31.800  
G12  20142963.863 5   -538554.255 5       566.244          30.100  
G19  23968941.894 3    287020.99513     -2844.684          22.800  
G24  23062060.715 6   2223879.125 6     -2995.609          37.200  
G25  21405582.970 5  -1857811.420 5      2197.424          35.200  
G29  23389921.541 6   -137683.107 6      2234.877          36.000  
> 2020 06 10 20 16 24.4432848  0  8                     
G02  20974614.444 5    661354.854 5     -1078.593          35.000  
G05  23218631.743 4  -1585505.57914      3207.209          29.300  
G06  22317662.771 5   2047967.593 5     -2828.157          31.800  
G12  20142857.357 5   -539120.961 5       567.404          29.600  
G19  23969477.243 4    289863.73814     -2841.144          27.600  
G24  23062624.544 6   2226874.597 6     -2995.026          36.700  
G25  21405155.086 5  -1860009.928 5      2199.787          35.100  
G29  23389494.557 6   -139919.069 6      2237.488          35.800  
> 2020 06 10 20 16 25.4432848  0  8                     
G02  20974815.033 5    662434.630 5     -1080.578          35.200  
G05  23218026.789 4  -1588710.712 4      3203.452          29.400  
G06  22318203.624 5   2050796.923 5     -2830.160          31.900  
G12  20142751.558 5   -539687.563 5       565.929          30.300  
G19  23970006.705 4    292705.94414     -2843.247          28.500  
G24  23063200.174 6   2229871.093 6     -2997.489          36.700  
G25  21404744.998 5  -1862209.350 5      2199.310          35.400  
G29  23389070.678 6   -142155.958 6      2236.876          36.600  
> 2020 06 10 20 16 26.4432847  0  8                     
G02  20974991.845 5    663515.737 5     -1078.266          35.100  
G05  23217388.766 4  -1591912.77414      3203.163          28.600  
G06  22318714.106 5   2053627.064 5     -2826.978          32.300  
G12  20142617.186 5   -540253.289 5       568.926          30.800  
G19  23970526.180 4    295549.70114     -2841.886          24.200  
G24  23063740.634 6   2232869.261 6     -2995.613          37.400  
G25  21404295.844 6  -1864409.146 6      2203.441          36.200  
G29  23388615.228 6   -144393.221 6      2241.011          36.400  
> 2020 06 10 20 16 27.4432847  0  8                     
G02  20975194.397 5    664592.125 5     -1078.020          34.900  
G05  23216779.780 4  -1595117.86324      3202.583          28.800  
G06  22319252.125 5   2056452.040 5     -2826.260          32.900  
G12  20142503.157 4   -540824.025 4       569.372          28.700  
G19  23971069.895 4    298388.83014     -2839.642          26.500  
G24  23064311.032 6   2235863.592 6     -2996.530          36.700  
G25  21403873.029 5  -1866614.978 5      2204.687          35.400  
G29  23388191.214 6   -146636.464 6      2241.854          35.900  
> 2020 06 10 20 16 28.4432847  0  8                     
G02  20975404.654 5    665675.112 5     -1084.762          34.700  
G05  23216162.909 5  -1598315.69625      3196.779          30.200  
G06  22319790.655 5   2059282.615 5     -2831.583          33.000  
G12  20142392.636 4   -541388.032 4       561.761          29.300  
G19  23971603.329 4    301232.52714     -2843.855          28.000  
G24  23064883.138 6   2238865.828 6     -3004.898          37.200  
G25  21403459.718 5  -1868814.388 5      2196.557          35.400  
G29  23387763.812 6   -148872.619 6      2232.774          36.000  
> 2020 06 10 20 16 29.4432847  0  8                     
G02  20975612.097 5    666759.854 5     -1080.912          34.100  
G05  23215560.913 5  -1601513.05125      3201.918          32.800  
G06  22320335.964 5   2062113.435 5     -2826.265          32.400  
G12  20142289.194 4   -541949.092 4       564.228          28.600  
G19  23972135.747 5    304074.59825     -2836.878          30.000  
G24  23065453.330 6   2241872.246 6     -3003.634          36.700  
G25  21403038.496 5  -1871009.483 5      2197.808          35.000  
G29  23387342.591 5   -151103.010 5      2232.388          34.400  
> 2020 06 10 20 16 30.4432846  0  8                     
G02  20975784.685 5    667837.157 5     -1077.165          34.800  
G05  23214918.965 5  -1604719.11725      3207.157          30.900  
G06  22320844.620 5   2064935.984 5     -2822.624          33.100  
G12  20142150.598 5   -542516.749 5       567.721          30.500  
G19  23972659.692 4    306907.65914     -2832.548          28.400  
G24  23065994.363 6   2244872.080 6     -2998.483          37.000  
G25  21402590.813 5  -1873210.081 5      2200.277          35.100  
G29  23386887.114 5   -153338.257 5      2235.375          34.600  
> 2020 06 10 20 16 31.4432846  0  8                     
G02  20975993.132 5    668913.344 5     -1073.465          35.200  
G05  23214306.579 5  -1607929.86325      3215.267          30.800  
G06  22321379.840 5   2067758.635 5     -2820.711          33.500  
G12  20142035.568 5   -543085.382 5       571.249          30.300  
G19  23973174.226 4              24     -2825.200          23.700  
G24  23066566.158 6   2247867.641 6     -2990.762          38.100  
G25  21402170.895 5  -1875410.903 5      2203.120          35.400  
G29  23386456.103 5              25      2240.400          34.400  
> 2020 06 10 20 16 32.4432846  0  8                     
G02  20976195.560 5    669987.195 5     -1073.961          34.400  
G05  23213696.570 5  -1611146.63925      3217.894          29.700  
G06  22321910.241 5   2070580.494 5     -2822.756          31.900  
G12  20141931.009 5   -543656.47915       570.833          30.400  
G19  23973724.714 3              23     -2828.550          21.400  
G24  23067134.333 6   2250856.544 6     -2987.487          36.900  
G25  21401753.053 5  -1877613.578 5      2202.135          34.500  
G29  23386032.265 5   -157810.551 5      2241.031          35.000  
> 2020 06 10 20 16 33.4432845  0  8                     
G02  20976374.784 5    671061.401 5     -1068.867          33.000  
G05  23213041.172 4              24      3221.650          25.000  
G06  22322414.140 5   2073404.68415     -2818.913          29.500  
G12  20141798.449 4              24       579.100          27.800  
G19  23974239.106 3              23     -2820.950          22.700  
G24  23067668.211 5   2253843.188 5     -2980.759          34.000  
G25  21401302.113 5  -1879815.22915      2206.970          32.800  
G29  23385574.130 5   -160051.615 5      2246.643          33.700  
> 2020 06 10 20 16 34.4432845  0  8                     
G02  20976574.947 6    672126.999 6     -1064.900          35.500  
G05  23212439.690 4  -1617587.52324      3229.246          26.900  
G06  22322951.270 5   2076219.281 5     -2813.637          31.900  
G12  20141683.230 5              25       580.500          32.300  
G19  23974770.539 4              24     -2819.700          25.300  
G24  23068240.117 6   2256820.955 6     -2977.315          36.800  
G25  21400882.905 6  -1882025.065 6      2210.494          35.800  
G29  23385144.729 6   -162300.980 6      2249.852          36.100  
> 2020 06 10 20 16 35.4432845  0  8                     
G02  20976776.552 6    673192.846 6     -1068.556          35.700  
G05  23211826.459 4  -1620816.19514      3225.873          29.400  
G06  22323491.940 5   2079033.526 5     -2816.800          33.300  
G12  20141577.248 5   -545369.333 5       575.828          32.400  
G19  23975312.109 4    321065.82724     -2821.247          26.100  
G24  23068801.173 6   2259799.780 6     -2982.008          36.500  
G25  21400462.440 6  -1884234.487 6      2206.596          36.000  
G29  23384717.968 6   -164549.497 6      2245.450          36.000  
> 2020 06 10 20 16 36.4432845  0  8                     
G02  20976981.871 5    674263.603 5     -1069.985          35.400  
G05  23211209.148 4  -1624039.30414      3223.418          27.100  
G06  22324029.429 5   2081852.338 5     -2818.040          32.400  
G12  20141464.188 5   -545942.487 5       574.477          32.700  
G19  23975860.990 3    323890.82213     -2826.952          23.300  
G24  23069373.438 6   2262783.914 6     -2983.106          36.600  
G25  21400043.292 6  -1886439.007 6      2205.359          35.500  
G29  23384290.726 5   -166792.472 5      2244.570          34.900  
> 2020 06 10 20 16 37.4432845  0  8                     
G02  20977184.090 6    675332.231 6     -1070.915          35.600  
G05  23210595.332 4  -1627264.71414      3223.063          27.200  
G06  22324561.120 5   2084668.976 5     -2819.165          31.900  
G12  20141357.621 5   -546518.403 5       573.759          33.000  
G19  23976376.492 3              23     -2825.150          21.500  
G24  23069937.507 6   2265765.280 6     -2983.126          36.600  
G25  21399621.942 6  -1888646.214 6      2205.177          35.600  
G29  23383862.481 5   -169039.007 5      2244.842          35.100  
> 2020 06 10 20 16 38.4432845  0  8                     
G02  20977384.827 5    676409.315 5     -1075.409          35.300  
G05  23209997.721 4  -1630482.42814      3219.196          26.200  
G06  22325099.424 5   2087494.326 5     -2823.558          31.600  
G12  20141243.876 5   -547086.054 5       569.244          32.600  
G19  23976923.190 4    329538.41824     -2824.753          25.200  
G24  23070508.488 5   2268753.979 5     -2986.685          34.700  
G25  21399204.807 5  -1890845.397 5      2200.971          35.100  
G29  23383441.749 5   -171278.210 5      2241.648          34.500  
> 2020 06 10 20 16 39.4432844  0  8                     
G02  20977563.129 6    677482.098 6     -1073.073          36.200  
G05  23209334.506 4  -1633703.89324      3221.920          27.400  
G06  22325609.596 5   2090315.110 5     -2821.088          32.300  
G12  20141104.997 5   -547657.907 5       571.450          33.000  
G19  23977438.459 4    332364.66814     -2826.614          26.000  
G24  23071048.639 6   2271738.185 6     -2983.869          37.000  
G25  21398755.044 6  -1893048.921 6      2203.185          36.000  
G29  23382981.493 5   -173521.880 5      2243.573          34.300  
> 2020 06 10 20 16 40.4432844  0  8                     
G02  20977767.792 6    678555.304 6     -1076.407          35.600  
G05  23208728.530 4  -1636926.12814      3219.447          27.200  
G06  22326142.231 5   2093136.574 5     -2824.817          32.500  
G12  20140999.674 5   -548229.327 5       568.164          33.400  
G19  23977961.801 3              23     -2828.600          20.900  
G24  23071611.854 6   2274721.730 6     -2986.405          36.500  
G25  21398334.040 6  -1895251.867 6      2199.682          36.000  
G29  23382555.092 5   -175765.537 5      2240.581          34.900  
> 2020 06 10 20 16 41.4432844  0  7                     
G02  20977968.327 5    679633.78515     -1074.496          32.600  
G05  23208094.743 3              23      3224.050          20.100  
G06  22326685.430 4   2095962.85214     -2822.014          27.800  
G12  20140889.925 5   -548795.98615       572.364          30.100  
G24  23072185.931 5   2277709.82315     -2985.063          31.800  
G25  21397920.001 5  -1897449.40115      2200.189          33.700  
G29  23382129.661 5   -178004.55315      2241.422          33.700  
> 2020 06 10 20 16 42.4432844  0  7                     
G02  20978181.002 5    680712.45215     -1081.072          31.300  
G05  23207506.972 4  -1643366.00924      3222.999          26.300  
G06  22327222.481 4   2098782.58214     -2820.842          27.600  
G12  20140786.918 4              24       568.350          27.600  
G19  23979051.043 3              23     -2832.350          22.700  
G24  23072752.661 5   2280693.52215     -2986.072          32.900  
G25  21397491.120 4  -1899647.93614      2198.308          25.500  
> 2020 06 10 20 16 43.4432843  0  8                     
G02  20978352.192 6    681790.717 6     -1079.201          35.700  
G05  23206868.422 4  -1646583.27324      3215.732          27.500  
G06  22327729.737 5   2101606.931 5     -2826.715          30.800  
G12  20140651.420 5   -549943.064 5       565.621          32.000  
G19  23979555.602 4    343678.31324     -2829.916          23.700  
G24  23073291.096 6   2283682.459 6     -2989.611          36.200  
G25  21397051.632 5  -1901846.977 5      2197.978          35.400  
G29  23381247.802 5              25      2238.600          31.400  
> 2020 06 10 20 16 44.4432843  0  8                     
G02  20978557.412 6    682869.651 6     -1073.845          35.800  
G05  23206245.016 5  -1649799.54115      3221.636          29.500  
G06  22328265.629 5   2104433.107 5     -2820.941          31.000  
G12  20140538.860 5   -550508.864 5       570.812          30.800  
G19  23980083.399 4    346507.94114     -2824.440          24.200  
G24  23073861.164 6   2286671.515 6     -2983.784          35.900  
G25  21396630.886 5  -1904045.478 5      2203.512          35.100  
G29  23380817.762 5   -184726.686 5      2244.691          34.600  
> 2020 06 10 20 16 45.4432843  0  8                     
G02  20978762.385 6    683940.676 6     -1072.888          36.300  
G05  23205635.453 4  -1653024.20114      3223.454          27.600  
G06  22328807.868 5   2107251.370 5     -2820.109          32.500  
G12  20140432.349 5   -551082.373 5       571.683          33.300  
G19  23980642.127 4    349329.57514     -2822.317          26.300  
G24  23074429.785 6   2289652.667 6     -2982.910          36.900  
G25  21396212.890 6  -1906251.418 6      2203.806          35.700  
G29  23380392.571 5   -186973.659 5      2245.007          35.200  
> 2020 06 10 20 16 46.4432843  0  8                     
G02  20978963.356 6    685015.401 6     -1071.339          35.800  
G05  23205023.387 4  -1656246.67214      3226.215          26.900  
G06  22329333.814 5   2110073.235 5     -2818.165          32.300  
G12  20140319.138 5   -551652.036 5       572.964          31.700  
G19  23981168.673 4    352153.95214     -2820.764          26.500  
G24  23074995.004 6   2292636.988 6     -2980.402          37.500  
G25  21395794.790 6  -1908453.213 6      2205.063          36.000  
G29  23379965.477 6   -189216.772 6      2246.763          35.800  
> 2020 06 10 20 16 47.4432842  0  8                     
G02  20979137.810 6    686085.776 6     -1072.527          36.100  
G05  23204383.005 4  -1659473.92714      3225.965          26.500  
G06  22329847.633 5   2112890.627 5     -2819.539          33.500  
G12  20140179.709 5   -552225.904 5       571.501          31.700  
G19  23981669.600 4    354972.93714     -2818.112          25.700  
G24  23075531.906 6   2295616.534 6     -2981.741          37.000  
G25  21395343.277 6  -1910659.011 6      2203.273          36.000  
G29  23379510.067 6   -191464.068 6      2244.832          36.700  
> 2020 06 10 20 16 48.4432842  0  8                     
G02  20979339.955 6    687159.106 6     -1073.326          36.200  
G05  23203771.813 4  -1662699.41514      3226.896          27.000  
G06  22330384.346 5   2115711.580 5     -2820.431          33.000  
G12  20140072.767 5   -552795.971 5       570.440          32.200  
G19  23982219.505 4    357791.54914     -2821.007          27.300  
G24  23076099.498 6   2298599.356 6     -2982.053          36.800  
G25  21394925.751 6  -1912860.639 6      2201.729          35.700  
G29  23379080.849 6   -193707.133 6      2243.316          37.000  
> 2020 06 10 20 16 49.4432842  0  8                     
G02  20979550.684 6    688237.026 6     -1076.107          35.800  
G05  23203152.417 4  -1665922.11314      3223.658          29.100  
G06  22330919.151 5   2118536.439 5     -2823.131          32.300  
G12  20139967.516 5   -553362.22115       567.268          30.900  
G19  23982755.809 4    360615.70214     -2822.322          27.300  
G24  23076669.080 6   2301585.390 6     -2983.838          36.900  
G25  21394503.918 6  -1915057.553 6      2198.393          36.000  
G29  23378653.020 6   -195945.924 6      2240.463          36.100  
> 2020 06 10 20 16 50.4432842  0  8                     
G02  20979753.593 6    689312.871 6     -1078.956          35.900  
G05  23202535.094 4  -1669147.59614      3222.770          27.500  
G06  22331455.130 5   2121359.186 5     -2825.786          33.000  
G12  20139855.343 5   -553929.848 5       564.439          31.200  
G19  23983283.992 4    363438.97514     -2825.746          26.900  
G24  23077231.739 6   2304568.675 6     -2986.181          37.400  
G25  21394086.257 6  -1917255.980 6      2195.124          35.700  
G29  23378226.965 6   -198186.538 6      2237.450          35.800  
> 2020 06 10 20 16 51.4432842  0  8                     
G02  20979958.336 6    690391.670 6     -1076.956          35.800  
G05  23201919.604 4  -1672370.35114      3225.303          28.100  
G06  22331995.940 5   2124184.711 5     -2823.834          32.600  
G12  20139754.897 5   -554494.363 5       566.417          30.200  
G19  23983820.605 4    366263.33814     -2822.253          27.300  
G24  23077801.629 6   2307554.391 6     -2983.257          37.300  
G25  21393671.328 6  -1919451.311 6      2197.523          35.900  
G29  23377803.342 6   -200424.303 6      2240.465          36.400  
> 2020 06 10 20 16 52.4432841  0  8                     
G02  20980130.805 5    691467.961 5     -1076.183          35.000  
G05  23201284.133 4  -1675596.68514      3225.953          28.700  
G06  22332500.879 5   2127007.834 5     -2822.921          31.000  
G12  20139615.882 4   -555061.667 4       567.567          29.400  
G19  23984329.142 4    369084.89914     -2821.243          25.900  
G24  23078342.843 6   2310536.669 6     -2982.043          36.200  
G25  21393223.227 6  -1921650.036 6      2199.474          35.800  
G29  23377349.245 6   -202666.087 6      2242.721          35.600  
> 2020 06 10 20 16 53.4432841  0  8                     
G02  20980339.929 6    692545.753 6     -1081.046          35.700  
G05  23200663.730 4  -1678820.92914      3220.761          29.000  
G06  22333034.677 5   2129832.097 5     -2827.607          32.000  
G12  20139508.124 5   -555627.801 5       562.791          29.900  
G19  23984871.934 4    371907.66114     -2826.148          27.300  
G24  23078909.619 6   2313520.350 6     -2986.732          36.800  
G25  21392806.084 6  -1923848.325 6      2194.804          36.000  
G29  23376917.712 6   -204907.673 6      2238.248          36.700  
> 2020 06 10 20 16 54.4432841  0  8                     
G02  20980542.908 5    693630.327 5     -1084.051          35.100  
G05  23200054.572 4  -1682038.75814      3220.085          29.000  
G06  22333579.420 5   2132663.222 5     -2830.699          31.200  
G12  20139403.217 5   -556186.276 5       559.307          29.800  
G19  23985407.384 4    374737.87914     -2828.481          27.900  
G24  23079480.444 6   2316509.915 6     -2988.657          37.000  
G25  21392385.196 6  -1926039.007 6      2190.610          35.600  
G29  23376495.625 6   -207141.989 6      2234.407          36.400  
> 2020 06 10 20 16 55.4432841  0  8                     
G02  20980752.267 5    694714.591 5     -1085.175          35.300  
G05  23199446.397 5  -1685259.361 5      3220.382          30.300  
G06  22334116.752 5   2135493.867 5     -2831.477          32.300  
G12  20139293.896 5   -556745.62515       557.703          29.900  
G19  23985946.814 4    377565.44814     -2827.739          26.600  
G24  23080045.656 6   2319498.941 6     -2990.097          37.100  
G25  21391969.487 6  -1928228.617 6      2188.004          36.000  
G29  23376070.922 6   -209375.188 6      2231.403          36.600  
> 2020 06 10 20 16 56.4432840  0  8                     
G02  20980926.710 6    695801.972 6     -1087.579          35.900  
G05  23198797.910 5  -1688478.304 5      3219.643          29.800  
G06  22334630.261 5   2138327.097 5     -2833.378          32.900  
G12  20139155.956 5   -557300.681 5       554.614          30.200  
G19  23986450.430 4    380395.00014     -2829.581          25.400  
G24  23080585.847 6   2322491.275 6     -2992.124          37.500  
G25  21391526.958 5  -1930413.817 5      2184.516          35.400  
G29  23375617.001 6   -211603.756 6      2228.190          36.200  
> 2020 06 10 20 16 57.4432840  0  8                     
G02  20981135.303 5    696892.799 5     -1093.143          35.400  
G05  23198189.568 5  -1691695.082 5      3215.292          29.900  
G06  22335162.329 5   2141163.845 5     -2839.165          32.100  
G12  20139053.364 5   -557852.050 5       548.797          30.100  
G19  23986997.488 4    383227.42014     -2834.221          27.800  
G24  23081157.188 6   2325486.625 6     -2997.275          37.800  
G25  21391112.282 6  -1932594.527 6      2178.040          36.000  
G29  23375193.031 6   -213827.984 6      2221.658          36.800  
> 2020 06 10 20 16 58.4432840  0  8                     
G02  20981340.659 6    697987.168 6     -1095.690          36.000  
G05  23197574.992 5  -1694910.00115      3213.774          29.900  
G06  22335704.352 5   2144004.150 5     -2841.790          32.100  
G12  20138946.336 5   -558399.500 5       545.871          30.200  
G19  23987534.714 4    386062.37214     -2835.903          26.600  
G24  23081722.894 6   2328484.754 6     -2999.193          37.800  
G25  21390695.868 6  -1934770.864 6      2174.482          36.000  
G29  23374765.825 6   -216048.063 6      2218.393          36.700  
> 2020 06 10 20 16 59.4432839  0  8                     
G02  20981522.435 6    699085.365 6     -1096.400          35.600  
G05  23196937.135 4  -1698122.60524      3215.308          28.600  
G06  22336214.701 5   2146848.274 5     -2842.321          32.300  
G12  20138817.527 5   -558942.787 5       545.046          30.200  
G19  23988046.861 4    388900.19914     -2835.653          26.300  
G24  23082268.618 6   2331486.229 6     -2999.239          37.500  
G25  21390249.879 5  -1936942.381 5      2172.972          35.300  
G29  23374320.735 6   -218263.451 6      2217.049          36.400  
> 2020 06 10 20 17 00.4432839  0  8                     
G02  20981732.205 6    700180.808 6     -1096.388          35.800  
G05  23196308.386 4              24      3215.100          27.600  
G06  22336754.543 5   2149689.724 5     -2842.377          32.800  
G12  20138705.920 5   -559488.117 5       544.847          31.200  
G19  23988591.500 4    391735.32614     -2835.835          27.500  
G24  23082835.742 6   2334484.090 6     -2998.458          37.400  
G25  21389839.978 6  -1939116.130 6      2172.693          35.800  
G29  23373896.445 6   -220481.460 6      2217.115          37.100  
> 2020 06 10 20 17 01.4432839  0  8                     
G02  20981941.160 6    701275.222 6     -1093.940          35.700  
G05  23195719.893 4  -1704552.03724      3219.072          28.100  
G06  22337299.265 5   2152530.356 5     -2840.003          32.500  
G12  20138608.187 5   -560034.958 5       547.342          30.300  
G19  23989122.432 4    394569.01614     -2832.853          25.500  
G24  23083407.745 6   2337480.304 6     -2995.405          36.900  
G25  21389423.266 6  -1941290.656 6      2175.084          36.100  
G29  23373475.535 6   -222700.503 6      2219.755          36.500  
> 2020 06 10 20 17 02.4432839  0  8                     
G02  20982146.316 6    702369.224 6     -1092.137          36.700  
G05  23195090.426 5  -1707771.24925      3221.156          30.700  
G06  22337835.991 5   2155370.454 5     -2838.069          32.600  
G12  20138503.358 5   -560582.154 5       548.975          30.500  
G19  23989661.556 5    397400.34415     -2827.996          31.100  
G24  23083980.746 5   2340475.803 5     -2993.809          33.000  
G25  21389010.849 6  -1943465.629 6      2176.612          36.100  
G29  23373053.825 6   -224920.232 6      2221.516          36.700  
> 2020 06 10 20 17 03.4432838  0  8                     
G02  20982327.355 6    703461.765 6     -1092.972          35.700  
G05  23194446.737 5  -1710992.30925      3221.163          30.000  
G06  22338347.702 5   2158208.940 5     -2838.756          32.000  
G12  20138364.818 5   -561130.617 5       548.051          30.900  
G19  23990161.575 4              24     -2834.600          27.300  
G24  23084518.838 6   2343469.710 6     -2994.134          36.000  
G25  21388562.025 5  -1945641.692 5      2175.602          35.100  
G29  23372603.501 5   -227140.996 5      2220.401          34.000  
> 2020 06 10 20 17 04.4432838  0  8                     
G02  20982535.014 5    704554.369 5     -1089.447          35.200  
G05  23193844.656 4  -1714214.62114      3226.064          28.200  
G06  22338882.734 5   2161047.613 5     -2835.526          32.000  
G12  20138265.490 5   -561678.949 5       551.568          30.900  
G19  23990709.498 4    403065.85824     -2826.031          26.400  
G24  23085088.347 6   2346463.162 6     -2989.642          35.900  
G25  21388153.310 5  -1947817.517 5      2178.960          35.200  
G29  23372180.697 6   -229361.791 6      2224.331          35.500  
> 2020 06 10 20 17 05.4432838  0  8                     
G02  20982743.956 6    705640.147 6     -1088.960          36.100  
G05  23193226.171 4  -1717444.06914      3226.424          29.000  
G06  22339426.544 5   2163879.737 5     -2835.379          32.600  
G12  20138155.152 5   -562234.156 5       552.052          32.400  
G19  23991250.010 4    405889.38414     -2824.913          25.900  
G24  23085653.442 6   2349448.695 6     -2988.342          36.300  
G25  21387739.883 6  -1950000.103 6      2179.346          36.200  
G29  23371752.579 6   -231589.869 6      2224.950          36.800  
> 2020 06 10 20 17 06.4432838  0  8                     
G02  20982953.083 6    706732.463 6     -1091.890          36.200  
G05  23192617.464 4  -1720667.79314      3224.509          28.600  
G06  22339970.539 5   2166717.30415     -2837.346          32.300  
G12  20138051.896 5   -562782.749 5       548.860          31.200  
G19  23991797.004 4    408717.44414     -2827.747          27.700  
G24  23086231.014 6   2352440.094 6     -2990.872          36.700  
G25  21387321.844 6  -1952176.077 6      2176.327          35.700  
G29  23371327.945 6   -233811.748 6      2222.308          36.400  
> 2020 06 10 20 17 07.4432837  0  8                     
G02  20983123.446 6    707823.561 6     -1089.202          35.700  
G05  23191970.593 4  -1723893.56614      3228.067          28.500  
G06  22340480.267 5   2169554.343 5     -2835.191          32.600  
G12  20137918.869 5   -563332.313 5       551.278          31.300  
G19  23992285.446 4    411544.25014     -2825.098          28.700  
G24  23086765.325 6   2355430.036 6     -2987.792          36.200  
G25  21386878.532 6  -1954352.955 6      2178.544          35.900  
G29  23370878.337 6   -236034.659 6      2224.792          36.400  
> 2020 06 10 20 17 08.4432837  0  8                     
G02  20983330.501 6    708911.178 6     -1088.571          35.700  
G05  23191349.921 4  -1727123.60814      3229.484          28.900  
G06  22341015.595 5   2172387.863 5     -2834.492          32.600  
G12  20137807.545 5   -563885.227 5       551.965          31.400  
G19  23992838.162 4    414366.87914     -2823.488          28.600  
G24  23087331.532 6   2358416.103 6     -2987.111          37.000  
G25  21386464.717 6  -1956532.895 6      2178.701          36.000  
G29  23370450.433 6   -238260.731 6      2224.756          36.800  
> 2020 06 10 20 17 09.4432837  0  8                     
G02  20983542.855 5    710003.403 5     -1090.859          35.400  
G05  23190739.944 4              24      3226.850          27.600  
G06  22341556.522 5   2175225.760 5     -2836.462          31.700  
G12  20137707.215 5   -564433.334 5       549.331          31.500  
G19  23993363.500 4    417193.48414     -2824.622          27.900  
G24  23087900.039 6   2361406.873 6     -2989.498          37.200  
G25  21386048.406 6  -1958707.832 6      2176.086          35.600  
G29  23370027.826 6   -240481.676 6      2222.181          36.500  
